{
  "departamento": "Matagalpa (Departemento)",
  "total_registros": 868,
  "lugares": [
    {
      "osm_id": "node/302349597",
      "nombre": "Sébaco",
      "tipo_localidad": "town",
      "latitud": 12.8549457,
      "longitud": -86.0984571,
      "departamento": "Matagalpa (Departemento)"
    },
    {
      "osm_id": "node/302360059",
      "nombre": "Matiguás",
      "tipo_localidad": "town",
      "latitud": 12.836943,
      "longitud": -85.4616054,
      "departamento": "Matagalpa (Departemento)"
    },
    {
      "osm_id": "node/302360137",
      "nombre": "Muy Muy",
      "tipo_localidad": "town",
      "latitud": 12.7627121,
      "longitud": -85.6289337,
      "departamento": "Matagalpa (Departemento)"
    },
    {
      "osm_id": "node/302360810",
      "nombre": "Esquipulas",
      "tipo_localidad": "town",
      "latitud": 12.6635768,
      "longitud": -85.7881224,
      "departamento": "Matagalpa (Departemento)"
    },
    {
      "osm_id": "node/302361532",
      "nombre": "Ciudad Darío",
      "tipo_localidad": "town",
      "latitud": 12.7319533,
      "longitud": -86.1243905,
      "departamento": "Matagalpa (Departemento)"
    },
    {
      "osm_id": "node/306246928",
      "nombre": "Río Blanco",
      "tipo_localidad": "town",
      "latitud": 12.9318286,
      "longitud": -85.2233986,
      "departamento": "Matagalpa (Departemento)"
    },
    {
      "osm_id": "node/306255733",
      "nombre": "Puertas Viejas",
      "tipo_localidad": "village",
      "latitud": 12.6018685,
      "longitud": -86.0451337,
      "departamento": "Matagalpa (Departemento)"
    },
    {
      "osm_id": "node/306256795",
      "nombre": "San Ramón",
      "tipo_localidad": "town",
      "latitud": 12.9230562,
      "longitud": -85.8379491,
      "departamento": "Matagalpa (Departemento)"
    },
    {
      "osm_id": "node/697190843",
      "nombre": "Wasake",
      "tipo_localidad": "hamlet",
      "latitud": 13.1206992,
      "longitud": -85.6869185,
      "departamento": "Matagalpa (Departemento)"
    },
    {
      "osm_id": "node/697190853",
      "nombre": "La Ceiba Bull Bull",
      "tipo_localidad": "hamlet",
      "latitud": 13.1681216,
      "longitud": -85.6046285,
      "departamento": "Matagalpa (Departemento)"
    },
    {
      "osm_id": "node/697190869",
      "nombre": "El Carmen Nº 1",
      "tipo_localidad": "village",
      "latitud": 13.2309312,
      "longitud": -85.6202866,
      "departamento": "Matagalpa (Departemento)"
    },
    {
      "osm_id": "node/1690434197",
      "nombre": "La Liberdad",
      "tipo_localidad": "hamlet",
      "latitud": 12.9096154,
      "longitud": -85.2822736,
      "departamento": "Matagalpa (Departemento)"
    },
    {
      "osm_id": "node/2117609598",
      "nombre": "La Dalia",
      "tipo_localidad": "town",
      "latitud": 13.1369849,
      "longitud": -85.7340079,
      "departamento": "Matagalpa (Departemento)"
    },
    {
      "osm_id": "node/2206258613",
      "nombre": "Barrio Totlate Abajo",
      "tipo_localidad": "neighbourhood",
      "latitud": 12.9362174,
      "longitud": -85.917709,
      "departamento": "Matagalpa (Departemento)"
    },
    {
      "osm_id": "node/2206258790",
      "nombre": "Barrio Totolate Arriba",
      "tipo_localidad": "neighbourhood",
      "latitud": 12.9388835,
      "longitud": -85.918954,
      "departamento": "Matagalpa (Departemento)"
    },
    {
      "osm_id": "node/2206258813",
      "nombre": "Barrio El Tambor",
      "tipo_localidad": "neighbourhood",
      "latitud": 12.9255199,
      "longitud": -85.9235945,
      "departamento": "Matagalpa (Departemento)"
    },
    {
      "osm_id": "node/2286281844",
      "nombre": "El Tuma",
      "tipo_localidad": "village",
      "latitud": 13.0627222,
      "longitud": -85.7451083,
      "departamento": "Matagalpa (Departemento)"
    },
    {
      "osm_id": "node/2296093398",
      "nombre": "Aranjuez",
      "tipo_localidad": "hamlet",
      "latitud": 13.0351254,
      "longitud": -85.9006215,
      "departamento": "Matagalpa (Departemento)"
    },
    {
      "osm_id": "node/2437449880",
      "nombre": "El Chagüite Santa María",
      "tipo_localidad": "hamlet",
      "latitud": 12.7402737,
      "longitud": -86.1509163,
      "departamento": "Matagalpa (Departemento)"
    },
    {
      "osm_id": "node/2560628301",
      "nombre": "Santa Emilia",
      "tipo_localidad": "village",
      "latitud": 12.9813648,
      "longitud": -85.8408858,
      "departamento": "Matagalpa (Departemento)"
    },
    {
      "osm_id": "node/2560689743",
      "nombre": "Barrio Apante",
      "tipo_localidad": "neighbourhood",
      "latitud": 12.9177925,
      "longitud": -85.9188954,
      "departamento": "Matagalpa (Departemento)"
    },
    {
      "osm_id": "node/2710016963",
      "nombre": "Cuatro Esquinas",
      "tipo_localidad": "hamlet",
      "latitud": 12.7539067,
      "longitud": -85.7181106,
      "departamento": "Matagalpa (Departemento)"
    },
    {
      "osm_id": "node/2710016965",
      "nombre": "El Quebrachal",
      "tipo_localidad": "hamlet",
      "latitud": 12.7494232,
      "longitud": -85.7236393,
      "departamento": "Matagalpa (Departemento)"
    },
    {
      "osm_id": "node/2710016966",
      "nombre": "El Terrero",
      "tipo_localidad": "hamlet",
      "latitud": 12.6725303,
      "longitud": -85.8037874,
      "departamento": "Matagalpa (Departemento)"
    },
    {
      "osm_id": "node/2710016967",
      "nombre": "La Conquista",
      "tipo_localidad": "hamlet",
      "latitud": 12.7652993,
      "longitud": -85.6728641,
      "departamento": "Matagalpa (Departemento)"
    },
    {
      "osm_id": "node/2710016968",
      "nombre": "San Vicente",
      "tipo_localidad": "hamlet",
      "latitud": 12.7251344,
      "longitud": -85.7185084,
      "departamento": "Matagalpa (Departemento)"
    },
    {
      "osm_id": "node/2711060905",
      "nombre": "El Barro",
      "tipo_localidad": "village",
      "latitud": 12.6867205,
      "longitud": -85.7625448,
      "departamento": "Matagalpa (Departemento)"
    },
    {
      "osm_id": "node/2711062259",
      "nombre": "El Corozo",
      "tipo_localidad": "hamlet",
      "latitud": 12.7859763,
      "longitud": -85.8736434,
      "departamento": "Matagalpa (Departemento)"
    },
    {
      "osm_id": "node/2711062267",
      "nombre": "Santa Isabel",
      "tipo_localidad": "hamlet",
      "latitud": 12.7555815,
      "longitud": -85.8455332,
      "departamento": "Matagalpa (Departemento)"
    },
    {
      "osm_id": "node/2711062270",
      "nombre": "Piedra Larga",
      "tipo_localidad": "hamlet",
      "latitud": 12.7456927,
      "longitud": -85.8421763,
      "departamento": "Matagalpa (Departemento)"
    },
    {
      "osm_id": "node/2711062273",
      "nombre": "Barrio Fabio Martínez",
      "tipo_localidad": "neighbourhood",
      "latitud": 12.767277,
      "longitud": -85.8489573,
      "departamento": "Matagalpa (Departemento)"
    },
    {
      "osm_id": "node/2711062393",
      "nombre": "Barrio San Francisco",
      "tipo_localidad": "neighbourhood",
      "latitud": 12.7600957,
      "longitud": -85.8580218,
      "departamento": "Matagalpa (Departemento)"
    },
    {
      "osm_id": "node/2711062443",
      "nombre": "San Dionisio",
      "tipo_localidad": "town",
      "latitud": 12.7622648,
      "longitud": -85.8516761,
      "departamento": "Matagalpa (Departemento)"
    },
    {
      "osm_id": "node/2719055831",
      "nombre": "Trentino Obrero",
      "tipo_localidad": "hamlet",
      "latitud": 12.9062844,
      "longitud": -85.8267155,
      "departamento": "Matagalpa (Departemento)"
    },
    {
      "osm_id": "node/2735742911",
      "nombre": "Wawule",
      "tipo_localidad": "village",
      "latitud": 12.8960649,
      "longitud": -85.702181,
      "departamento": "Matagalpa (Departemento)"
    },
    {
      "osm_id": "node/2735742919",
      "nombre": "La Reyna",
      "tipo_localidad": "village",
      "latitud": 12.9152188,
      "longitud": -85.8128071,
      "departamento": "Matagalpa (Departemento)"
    },
    {
      "osm_id": "node/2735742922",
      "nombre": "El Corozo",
      "tipo_localidad": "village",
      "latitud": 13.0164772,
      "longitud": -85.4211377,
      "departamento": "Matagalpa (Departemento)"
    },
    {
      "osm_id": "node/2735748829",
      "nombre": "San Pablo",
      "tipo_localidad": "village",
      "latitud": 12.8786104,
      "longitud": -85.7766375,
      "departamento": "Matagalpa (Departemento)"
    },
    {
      "osm_id": "node/2735748830",
      "nombre": "Yucul",
      "tipo_localidad": "village",
      "latitud": 12.9141239,
      "longitud": -85.7832971,
      "departamento": "Matagalpa (Departemento)"
    },
    {
      "osm_id": "node/2825554063",
      "nombre": "Terrabona",
      "tipo_localidad": "town",
      "latitud": 12.7309895,
      "longitud": -85.9649988,
      "departamento": "Matagalpa (Departemento)"
    },
    {
      "osm_id": "node/2830398466",
      "nombre": "Apalilí",
      "tipo_localidad": "village",
      "latitud": 13.0034903,
      "longitud": -85.9560288,
      "departamento": "Matagalpa (Departemento)"
    },
    {
      "osm_id": "node/2831436419",
      "nombre": "Chagüitillo",
      "tipo_localidad": "village",
      "latitud": 12.8848499,
      "longitud": -86.081403,
      "departamento": "Matagalpa (Departemento)"
    },
    {
      "osm_id": "node/2831440138",
      "nombre": "Waswalí Abajo",
      "tipo_localidad": "village",
      "latitud": 12.9165081,
      "longitud": -85.970757,
      "departamento": "Matagalpa (Departemento)"
    },
    {
      "osm_id": "node/2831594888",
      "nombre": "Valle Las Calabazas",
      "tipo_localidad": "village",
      "latitud": 12.6663259,
      "longitud": -86.0881097,
      "departamento": "Matagalpa (Departemento)"
    },
    {
      "osm_id": "node/2832516855",
      "nombre": "Residencial Las Nubes",
      "tipo_localidad": "suburb",
      "latitud": 12.9432908,
      "longitud": -85.9131201,
      "departamento": "Matagalpa (Departemento)"
    },
    {
      "osm_id": "node/2836960093",
      "nombre": "San Isidro",
      "tipo_localidad": "town",
      "latitud": 12.928118,
      "longitud": -86.1926508,
      "departamento": "Matagalpa (Departemento)"
    },
    {
      "osm_id": "node/2851898779",
      "nombre": "El Chagüite",
      "tipo_localidad": "hamlet",
      "latitud": 12.9686309,
      "longitud": -86.003388,
      "departamento": "Matagalpa (Departemento)"
    },
    {
      "osm_id": "node/2851898780",
      "nombre": "El Chilamate",
      "tipo_localidad": "hamlet",
      "latitud": 12.9737348,
      "longitud": -86.017005,
      "departamento": "Matagalpa (Departemento)"
    },
    {
      "osm_id": "node/2851898781",
      "nombre": "El Guayacán",
      "tipo_localidad": "village",
      "latitud": 12.9223638,
      "longitud": -86.0091273,
      "departamento": "Matagalpa (Departemento)"
    },
    {
      "osm_id": "node/2851898783",
      "nombre": "El Oregano",
      "tipo_localidad": "hamlet",
      "latitud": 12.9781701,
      "longitud": -86.000455,
      "departamento": "Matagalpa (Departemento)"
    },
    {
      "osm_id": "node/2851898785",
      "nombre": "El Salto",
      "tipo_localidad": "hamlet",
      "latitud": 12.9789965,
      "longitud": -86.029455,
      "departamento": "Matagalpa (Departemento)"
    },
    {
      "osm_id": "node/2851898786",
      "nombre": "Jocomico",
      "tipo_localidad": "hamlet",
      "latitud": 13.0081232,
      "longitud": -86.0540489,
      "departamento": "Matagalpa (Departemento)"
    },
    {
      "osm_id": "node/2851898787",
      "nombre": "La Corneta",
      "tipo_localidad": "village",
      "latitud": 12.9670727,
      "longitud": -86.0375412,
      "departamento": "Matagalpa (Departemento)"
    },
    {
      "osm_id": "node/2851898788",
      "nombre": "Las Lomas",
      "tipo_localidad": "hamlet",
      "latitud": 12.9685844,
      "longitud": -86.0466129,
      "departamento": "Matagalpa (Departemento)"
    },
    {
      "osm_id": "node/2851898789",
      "nombre": "Las Mesas",
      "tipo_localidad": "hamlet",
      "latitud": 12.940679,
      "longitud": -86.0156105,
      "departamento": "Matagalpa (Departemento)"
    },
    {
      "osm_id": "node/2851898790",
      "nombre": "Los Guanacastes",
      "tipo_localidad": "hamlet",
      "latitud": 13.0102931,
      "longitud": -86.0654749,
      "departamento": "Matagalpa (Departemento)"
    },
    {
      "osm_id": "node/2851901822",
      "nombre": "El Naranjo",
      "tipo_localidad": "village",
      "latitud": 12.9927104,
      "longitud": -86.0306787,
      "departamento": "Matagalpa (Departemento)"
    },
    {
      "osm_id": "node/2854303628",
      "nombre": "La Joya",
      "tipo_localidad": "village",
      "latitud": 12.7420625,
      "longitud": -86.0121371,
      "departamento": "Matagalpa (Departemento)"
    },
    {
      "osm_id": "node/2854401595",
      "nombre": "Las Mesas",
      "tipo_localidad": "hamlet",
      "latitud": 12.7150204,
      "longitud": -86.2224406,
      "departamento": "Matagalpa (Departemento)"
    },
    {
      "osm_id": "node/2854401597",
      "nombre": "El Cacao",
      "tipo_localidad": "hamlet",
      "latitud": 12.7750566,
      "longitud": -86.2523254,
      "departamento": "Matagalpa (Departemento)"
    },
    {
      "osm_id": "node/2854401598",
      "nombre": "El Hato",
      "tipo_localidad": "hamlet",
      "latitud": 12.7313983,
      "longitud": -86.0716084,
      "departamento": "Matagalpa (Departemento)"
    },
    {
      "osm_id": "node/2854401599",
      "nombre": "El Jocote",
      "tipo_localidad": "village",
      "latitud": 12.863985,
      "longitud": -86.2038364,
      "departamento": "Matagalpa (Departemento)"
    },
    {
      "osm_id": "node/2854401600",
      "nombre": "El Paso Real",
      "tipo_localidad": "village",
      "latitud": 12.8412139,
      "longitud": -86.1729288,
      "departamento": "Matagalpa (Departemento)"
    },
    {
      "osm_id": "node/2854401701",
      "nombre": "La Majadita",
      "tipo_localidad": "hamlet",
      "latitud": 12.8125974,
      "longitud": -86.190767,
      "departamento": "Matagalpa (Departemento)"
    },
    {
      "osm_id": "node/2854401703",
      "nombre": "La Union",
      "tipo_localidad": "village",
      "latitud": 12.7956495,
      "longitud": -86.2632783,
      "departamento": "Matagalpa (Departemento)"
    },
    {
      "osm_id": "node/2854401704",
      "nombre": "Las Mangas",
      "tipo_localidad": "village",
      "latitud": 12.8364948,
      "longitud": -86.2161537,
      "departamento": "Matagalpa (Departemento)"
    },
    {
      "osm_id": "node/2854401705",
      "nombre": "La Lagunita",
      "tipo_localidad": "hamlet",
      "latitud": 12.8799637,
      "longitud": -86.2024782,
      "departamento": "Matagalpa (Departemento)"
    },
    {
      "osm_id": "node/2854401706",
      "nombre": "Ojo del Agua",
      "tipo_localidad": "village",
      "latitud": 12.7549175,
      "longitud": -85.9879793,
      "departamento": "Matagalpa (Departemento)"
    },
    {
      "osm_id": "node/2854406067",
      "nombre": "Real de la Cruz",
      "tipo_localidad": "hamlet",
      "latitud": 12.800048,
      "longitud": -86.235396,
      "departamento": "Matagalpa (Departemento)"
    },
    {
      "osm_id": "node/2854406069",
      "nombre": "San Esteban",
      "tipo_localidad": "hamlet",
      "latitud": 12.7234867,
      "longitud": -86.2385066,
      "departamento": "Matagalpa (Departemento)"
    },
    {
      "osm_id": "node/2854406070",
      "nombre": "Santa Rosa",
      "tipo_localidad": "village",
      "latitud": 12.8999359,
      "longitud": -86.2037636,
      "departamento": "Matagalpa (Departemento)"
    },
    {
      "osm_id": "node/2854406071",
      "nombre": "Soledad de Cruz",
      "tipo_localidad": "village",
      "latitud": 12.7908507,
      "longitud": -86.2537922,
      "departamento": "Matagalpa (Departemento)"
    },
    {
      "osm_id": "node/2854406072",
      "nombre": "Tatascame",
      "tipo_localidad": "hamlet",
      "latitud": 12.7952539,
      "longitud": -86.2699855,
      "departamento": "Matagalpa (Departemento)"
    },
    {
      "osm_id": "node/2857409701",
      "nombre": "El Cacao de Los Suárez",
      "tipo_localidad": "village",
      "latitud": 12.5912242,
      "longitud": -85.9084386,
      "departamento": "Matagalpa (Departemento)"
    },
    {
      "osm_id": "node/2861168506",
      "nombre": "Caña de Castilla",
      "tipo_localidad": "hamlet",
      "latitud": 12.6818186,
      "longitud": -86.0026181,
      "departamento": "Matagalpa (Departemento)"
    },
    {
      "osm_id": "node/2861168507",
      "nombre": "Cuasiniguil",
      "tipo_localidad": "hamlet",
      "latitud": 12.7400525,
      "longitud": -85.9996532,
      "departamento": "Matagalpa (Departemento)"
    },
    {
      "osm_id": "node/2861168508",
      "nombre": "Las Delicias",
      "tipo_localidad": "village",
      "latitud": 12.7013653,
      "longitud": -86.0454103,
      "departamento": "Matagalpa (Departemento)"
    },
    {
      "osm_id": "node/2861168510",
      "nombre": "San Juanillo",
      "tipo_localidad": "village",
      "latitud": 12.6999618,
      "longitud": -86.0570887,
      "departamento": "Matagalpa (Departemento)"
    },
    {
      "osm_id": "node/2889304642",
      "nombre": "El Aparejo",
      "tipo_localidad": "hamlet",
      "latitud": 12.9994041,
      "longitud": -85.1852979,
      "departamento": "Matagalpa (Departemento)"
    },
    {
      "osm_id": "node/2889304644",
      "nombre": "El Castillo",
      "tipo_localidad": "hamlet",
      "latitud": 13.0311596,
      "longitud": -85.1783778,
      "departamento": "Matagalpa (Departemento)"
    },
    {
      "osm_id": "node/2889304657",
      "nombre": "El Quebradón",
      "tipo_localidad": "hamlet",
      "latitud": 13.1250496,
      "longitud": -85.8141718,
      "departamento": "Matagalpa (Departemento)"
    },
    {
      "osm_id": "node/2889304665",
      "nombre": "Guasimón",
      "tipo_localidad": "hamlet",
      "latitud": 12.9403323,
      "longitud": -85.5399481,
      "departamento": "Matagalpa (Departemento)"
    },
    {
      "osm_id": "node/2889304682",
      "nombre": "Las Mercedes",
      "tipo_localidad": "hamlet",
      "latitud": 12.9,
      "longitud": -85.533333,
      "departamento": "Matagalpa (Departemento)"
    },
    {
      "osm_id": "node/2889305001",
      "nombre": "La Cebadilla",
      "tipo_localidad": "hamlet",
      "latitud": 12.866667,
      "longitud": -85.55,
      "departamento": "Matagalpa (Departemento)"
    },
    {
      "osm_id": "node/2936478173",
      "nombre": "Wanawás",
      "tipo_localidad": "village",
      "latitud": 13.0809242,
      "longitud": -85.2307952,
      "departamento": "Matagalpa (Departemento)"
    },
    {
      "osm_id": "node/2936478658",
      "nombre": "Buhbu",
      "tipo_localidad": "village",
      "latitud": 13.1322492,
      "longitud": -85.3016273,
      "departamento": "Matagalpa (Departemento)"
    },
    {
      "osm_id": "node/3720274107",
      "nombre": "La Garita",
      "tipo_localidad": "village",
      "latitud": 12.9365818,
      "longitud": -85.8630484,
      "departamento": "Matagalpa (Departemento)"
    },
    {
      "osm_id": "node/3720274108",
      "nombre": "Los Pinares",
      "tipo_localidad": "hamlet",
      "latitud": 12.9097463,
      "longitud": -85.7738598,
      "departamento": "Matagalpa (Departemento)"
    },
    {
      "osm_id": "node/3898452105",
      "nombre": "El Portón",
      "tipo_localidad": "village",
      "latitud": 12.7290081,
      "longitud": -85.7299297,
      "departamento": "Matagalpa (Departemento)"
    },
    {
      "osm_id": "node/3898452106",
      "nombre": "Santa Inés",
      "tipo_localidad": "village",
      "latitud": 12.7215245,
      "longitud": -85.7479849,
      "departamento": "Matagalpa (Departemento)"
    },
    {
      "osm_id": "node/3898709882",
      "nombre": "Rancho Grande",
      "tipo_localidad": "town",
      "latitud": 13.2374884,
      "longitud": -85.5591138,
      "departamento": "Matagalpa (Departemento)"
    },
    {
      "osm_id": "node/4102771234",
      "nombre": "El Ojo de Agua",
      "tipo_localidad": "hamlet",
      "latitud": 12.5612137,
      "longitud": -86.0213702,
      "departamento": "Matagalpa (Departemento)"
    },
    {
      "osm_id": "node/4102771235",
      "nombre": "Los Pedernales",
      "tipo_localidad": "hamlet",
      "latitud": 12.5535339,
      "longitud": -86.0050987,
      "departamento": "Matagalpa (Departemento)"
    },
    {
      "osm_id": "node/4102771236",
      "nombre": "El Chote",
      "tipo_localidad": "hamlet",
      "latitud": 12.5690754,
      "longitud": -86.0184672,
      "departamento": "Matagalpa (Departemento)"
    },
    {
      "osm_id": "node/4102771241",
      "nombre": "Las Lomas",
      "tipo_localidad": "hamlet",
      "latitud": 12.556113,
      "longitud": -86.0371934,
      "departamento": "Matagalpa (Departemento)"
    },
    {
      "osm_id": "node/4102771242",
      "nombre": "Las Playitas",
      "tipo_localidad": "hamlet",
      "latitud": 12.5721139,
      "longitud": -86.0461214,
      "departamento": "Matagalpa (Departemento)"
    },
    {
      "osm_id": "node/4102771243",
      "nombre": "Llano Verde",
      "tipo_localidad": "hamlet",
      "latitud": 12.5476181,
      "longitud": -85.9880417,
      "departamento": "Matagalpa (Departemento)"
    },
    {
      "osm_id": "node/4102771245",
      "nombre": "Los Placeres de Las Playitas",
      "tipo_localidad": "hamlet",
      "latitud": 12.5633279,
      "longitud": -86.0382526,
      "departamento": "Matagalpa (Departemento)"
    },
    {
      "osm_id": "node/4102771250",
      "nombre": "Buena Vista",
      "tipo_localidad": "hamlet",
      "latitud": 12.5743323,
      "longitud": -86.0130502,
      "departamento": "Matagalpa (Departemento)"
    },
    {
      "osm_id": "node/4102771251",
      "nombre": "Valle San Juan",
      "tipo_localidad": "village",
      "latitud": 12.5502432,
      "longitud": -85.9969763,
      "departamento": "Matagalpa (Departemento)"
    },
    {
      "osm_id": "node/4102996300",
      "nombre": "El Terrero",
      "tipo_localidad": "hamlet",
      "latitud": 12.5865774,
      "longitud": -86.0985792,
      "departamento": "Matagalpa (Departemento)"
    },
    {
      "osm_id": "node/4103983749",
      "nombre": "Las Nubes",
      "tipo_localidad": "hamlet",
      "latitud": 12.6262894,
      "longitud": -86.1337295,
      "departamento": "Matagalpa (Departemento)"
    },
    {
      "osm_id": "node/4103983756",
      "nombre": "El Paraíso (Mario Soza)",
      "tipo_localidad": "hamlet",
      "latitud": 12.6554123,
      "longitud": -86.0107001,
      "departamento": "Matagalpa (Departemento)"
    },
    {
      "osm_id": "node/4103983759",
      "nombre": "Las Pilas",
      "tipo_localidad": "hamlet",
      "latitud": 12.6337305,
      "longitud": -86.0120565,
      "departamento": "Matagalpa (Departemento)"
    },
    {
      "osm_id": "node/4103983767",
      "nombre": "Los Cerritos",
      "tipo_localidad": "hamlet",
      "latitud": 12.6643087,
      "longitud": -86.1748666,
      "departamento": "Matagalpa (Departemento)"
    },
    {
      "osm_id": "node/4103983769",
      "nombre": "El Chagüite",
      "tipo_localidad": "hamlet",
      "latitud": 12.665031,
      "longitud": -86.2007954,
      "departamento": "Matagalpa (Departemento)"
    },
    {
      "osm_id": "node/4103983771",
      "nombre": "El Sesteo",
      "tipo_localidad": "hamlet",
      "latitud": 12.6474262,
      "longitud": -86.1925665,
      "departamento": "Matagalpa (Departemento)"
    },
    {
      "osm_id": "node/4103983774",
      "nombre": "Valle Las Pilas",
      "tipo_localidad": "hamlet",
      "latitud": 12.6641229,
      "longitud": -86.036478,
      "departamento": "Matagalpa (Departemento)"
    },
    {
      "osm_id": "node/4103983775",
      "nombre": "El Pavón",
      "tipo_localidad": "hamlet",
      "latitud": 12.6580489,
      "longitud": -86.2056557,
      "departamento": "Matagalpa (Departemento)"
    },
    {
      "osm_id": "node/4103983776",
      "nombre": "Los Cedros",
      "tipo_localidad": "hamlet",
      "latitud": 12.6533356,
      "longitud": -86.1177275,
      "departamento": "Matagalpa (Departemento)"
    },
    {
      "osm_id": "node/4103983777",
      "nombre": "Los Limones",
      "tipo_localidad": "hamlet",
      "latitud": 12.6570256,
      "longitud": -86.1974695,
      "departamento": "Matagalpa (Departemento)"
    },
    {
      "osm_id": "node/4103983778",
      "nombre": "Valle Plan de Monte",
      "tipo_localidad": "hamlet",
      "latitud": 12.6631102,
      "longitud": -86.2461731,
      "departamento": "Matagalpa (Departemento)"
    },
    {
      "osm_id": "node/4103983780",
      "nombre": "Los Trujillos",
      "tipo_localidad": "hamlet",
      "latitud": 12.6644789,
      "longitud": -86.2310455,
      "departamento": "Matagalpa (Departemento)"
    },
    {
      "osm_id": "node/4103983781",
      "nombre": "Apacorral",
      "tipo_localidad": "hamlet",
      "latitud": 12.6592187,
      "longitud": -86.1126259,
      "departamento": "Matagalpa (Departemento)"
    },
    {
      "osm_id": "node/4106721009",
      "nombre": "Agua Fria",
      "tipo_localidad": "hamlet",
      "latitud": 12.8524014,
      "longitud": -86.0010256,
      "departamento": "Matagalpa (Departemento)"
    },
    {
      "osm_id": "node/4106721012",
      "nombre": "Bilwaska",
      "tipo_localidad": "hamlet",
      "latitud": 12.8254209,
      "longitud": -86.0536023,
      "departamento": "Matagalpa (Departemento)"
    },
    {
      "osm_id": "node/4106721013",
      "nombre": "Carreta Quebrada",
      "tipo_localidad": "hamlet",
      "latitud": 12.9055171,
      "longitud": -86.1257437,
      "departamento": "Matagalpa (Departemento)"
    },
    {
      "osm_id": "node/4106721023",
      "nombre": "El Estero",
      "tipo_localidad": "hamlet",
      "latitud": 12.831177,
      "longitud": -86.1197804,
      "departamento": "Matagalpa (Departemento)"
    },
    {
      "osm_id": "node/4106721024",
      "nombre": "El Almendro",
      "tipo_localidad": "hamlet",
      "latitud": 12.8640118,
      "longitud": -86.2379076,
      "departamento": "Matagalpa (Departemento)"
    },
    {
      "osm_id": "node/4106721025",
      "nombre": "El Hatillo",
      "tipo_localidad": "village",
      "latitud": 12.8428303,
      "longitud": -86.0274803,
      "departamento": "Matagalpa (Departemento)"
    },
    {
      "osm_id": "node/4106721027",
      "nombre": "El Bocon",
      "tipo_localidad": "hamlet",
      "latitud": 12.904338,
      "longitud": -86.2177267,
      "departamento": "Matagalpa (Departemento)"
    },
    {
      "osm_id": "node/4106721029",
      "nombre": "El Cacao",
      "tipo_localidad": "hamlet",
      "latitud": 12.9333359,
      "longitud": -86.0740997,
      "departamento": "Matagalpa (Departemento)"
    },
    {
      "osm_id": "node/4106721030",
      "nombre": "El Caracol",
      "tipo_localidad": "hamlet",
      "latitud": 12.8215999,
      "longitud": -85.9898784,
      "departamento": "Matagalpa (Departemento)"
    },
    {
      "osm_id": "node/4106721031",
      "nombre": "El Charrizal",
      "tipo_localidad": "hamlet",
      "latitud": 12.9077681,
      "longitud": -86.2287345,
      "departamento": "Matagalpa (Departemento)"
    },
    {
      "osm_id": "node/4106721033",
      "nombre": "El Guapino",
      "tipo_localidad": "hamlet",
      "latitud": 13.0365819,
      "longitud": -86.082192,
      "departamento": "Matagalpa (Departemento)"
    },
    {
      "osm_id": "node/4106721034",
      "nombre": "El Jobo",
      "tipo_localidad": "hamlet",
      "latitud": 13.0298191,
      "longitud": -86.0705592,
      "departamento": "Matagalpa (Departemento)"
    },
    {
      "osm_id": "node/4106721038",
      "nombre": "El Pilar",
      "tipo_localidad": "hamlet",
      "latitud": 12.9075067,
      "longitud": -86.1725475,
      "departamento": "Matagalpa (Departemento)"
    },
    {
      "osm_id": "node/4106721039",
      "nombre": "El Plan",
      "tipo_localidad": "hamlet",
      "latitud": 12.9011483,
      "longitud": -86.2257518,
      "departamento": "Matagalpa (Departemento)"
    },
    {
      "osm_id": "node/4106721041",
      "nombre": "El Quebrachal",
      "tipo_localidad": "hamlet",
      "latitud": 12.9999829,
      "longitud": -86.0708356,
      "departamento": "Matagalpa (Departemento)"
    },
    {
      "osm_id": "node/4106721043",
      "nombre": "El Valle",
      "tipo_localidad": "village",
      "latitud": 12.8415593,
      "longitud": -86.105192,
      "departamento": "Matagalpa (Departemento)"
    },
    {
      "osm_id": "node/4106721046",
      "nombre": "Izalco",
      "tipo_localidad": "hamlet",
      "latitud": 12.895629,
      "longitud": -85.9860482,
      "departamento": "Matagalpa (Departemento)"
    },
    {
      "osm_id": "node/4106721047",
      "nombre": "Jamaica",
      "tipo_localidad": "hamlet",
      "latitud": 12.8466901,
      "longitud": -86.0077634,
      "departamento": "Matagalpa (Departemento)"
    },
    {
      "osm_id": "node/4106721048",
      "nombre": "Jucuapa Abajo",
      "tipo_localidad": "village",
      "latitud": 12.8680595,
      "longitud": -86.0005107,
      "departamento": "Matagalpa (Departemento)"
    },
    {
      "osm_id": "node/4106721051",
      "nombre": "La Concepción",
      "tipo_localidad": "hamlet",
      "latitud": 12.892553,
      "longitud": -86.1272739,
      "departamento": "Matagalpa (Departemento)"
    },
    {
      "osm_id": "node/4106721054",
      "nombre": "Laguna Seca",
      "tipo_localidad": "hamlet",
      "latitud": 12.8859027,
      "longitud": -85.9904685,
      "departamento": "Matagalpa (Departemento)"
    },
    {
      "osm_id": "node/4106721056",
      "nombre": "Las Cidras",
      "tipo_localidad": "hamlet",
      "latitud": 12.9015352,
      "longitud": -86.2470379,
      "departamento": "Matagalpa (Departemento)"
    },
    {
      "osm_id": "node/4106721064",
      "nombre": "Las Palomas",
      "tipo_localidad": "village",
      "latitud": 12.8872518,
      "longitud": -86.0693576,
      "departamento": "Matagalpa (Departemento)"
    },
    {
      "osm_id": "node/4106721065",
      "nombre": "Las Pozas",
      "tipo_localidad": "village",
      "latitud": 12.8218719,
      "longitud": -86.0200801,
      "departamento": "Matagalpa (Departemento)"
    },
    {
      "osm_id": "node/4106721066",
      "nombre": "Las Cuatro Esquinas",
      "tipo_localidad": "hamlet",
      "latitud": 12.906453,
      "longitud": -86.0567895,
      "departamento": "Matagalpa (Departemento)"
    },
    {
      "osm_id": "node/4106721067",
      "nombre": "Las Sabanetas",
      "tipo_localidad": "hamlet",
      "latitud": 12.8568652,
      "longitud": -86.2268194,
      "departamento": "Matagalpa (Departemento)"
    },
    {
      "osm_id": "node/4106721070",
      "nombre": "Loma Alta",
      "tipo_localidad": "hamlet",
      "latitud": 12.843586,
      "longitud": -86.0959919,
      "departamento": "Matagalpa (Departemento)"
    },
    {
      "osm_id": "node/4106721074",
      "nombre": "Los Cordones",
      "tipo_localidad": "hamlet",
      "latitud": 12.8843548,
      "longitud": -86.0560485,
      "departamento": "Matagalpa (Departemento)"
    },
    {
      "osm_id": "node/4106721076",
      "nombre": "Los Esteros",
      "tipo_localidad": "hamlet",
      "latitud": 12.8342526,
      "longitud": -86.1120852,
      "departamento": "Matagalpa (Departemento)"
    },
    {
      "osm_id": "node/4106721080",
      "nombre": "Lugar La Riata",
      "tipo_localidad": "hamlet",
      "latitud": 12.9453294,
      "longitud": -86.0863092,
      "departamento": "Matagalpa (Departemento)"
    },
    {
      "osm_id": "node/4106721082",
      "nombre": "Molino Sur",
      "tipo_localidad": "hamlet",
      "latitud": 12.8346971,
      "longitud": -85.9945669,
      "departamento": "Matagalpa (Departemento)"
    },
    {
      "osm_id": "node/4106721084",
      "nombre": "Ocote",
      "tipo_localidad": "hamlet",
      "latitud": 12.7999179,
      "longitud": -86.0094907,
      "departamento": "Matagalpa (Departemento)"
    },
    {
      "osm_id": "node/4106721085",
      "nombre": "Paso Carretera",
      "tipo_localidad": "hamlet",
      "latitud": 12.8722172,
      "longitud": -86.1339485,
      "departamento": "Matagalpa (Departemento)"
    },
    {
      "osm_id": "node/4106721086",
      "nombre": "Potrero Largo",
      "tipo_localidad": "hamlet",
      "latitud": 12.8158304,
      "longitud": -86.0083588,
      "departamento": "Matagalpa (Departemento)"
    },
    {
      "osm_id": "node/4106721087",
      "nombre": "Potrero Redondo",
      "tipo_localidad": "hamlet",
      "latitud": 12.8059493,
      "longitud": -86.0143267,
      "departamento": "Matagalpa (Departemento)"
    },
    {
      "osm_id": "node/4106721088",
      "nombre": "Quebrada Honda",
      "tipo_localidad": "hamlet",
      "latitud": 12.8229338,
      "longitud": -86.1912479,
      "departamento": "Matagalpa (Departemento)"
    },
    {
      "osm_id": "node/4106721389",
      "nombre": "Quebrada Honda",
      "tipo_localidad": "village",
      "latitud": 12.9117394,
      "longitud": -86.024967,
      "departamento": "Matagalpa (Departemento)"
    },
    {
      "osm_id": "node/4106721390",
      "nombre": "Quebrada Honda",
      "tipo_localidad": "hamlet",
      "latitud": 12.9209968,
      "longitud": -86.2103774,
      "departamento": "Matagalpa (Departemento)"
    },
    {
      "osm_id": "node/4106721391",
      "nombre": "Río Nuevo",
      "tipo_localidad": "hamlet",
      "latitud": 12.8455003,
      "longitud": -86.1220549,
      "departamento": "Matagalpa (Departemento)"
    },
    {
      "osm_id": "node/4106721392",
      "nombre": "San Andrés del Tamarindo",
      "tipo_localidad": "village",
      "latitud": 13.0093729,
      "longitud": -86.1343019,
      "departamento": "Matagalpa (Departemento)"
    },
    {
      "osm_id": "node/4106721394",
      "nombre": "San Miguel",
      "tipo_localidad": "hamlet",
      "latitud": 12.8324062,
      "longitud": -85.9865203,
      "departamento": "Matagalpa (Departemento)"
    },
    {
      "osm_id": "node/4106721395",
      "nombre": "San Nicolás",
      "tipo_localidad": "hamlet",
      "latitud": 12.8989547,
      "longitud": -86.001884,
      "departamento": "Matagalpa (Departemento)"
    },
    {
      "osm_id": "node/4106721396",
      "nombre": "Santa Isabel",
      "tipo_localidad": "village",
      "latitud": 12.819199,
      "longitud": -86.1220496,
      "departamento": "Matagalpa (Departemento)"
    },
    {
      "osm_id": "node/4106721399",
      "nombre": "Soledad",
      "tipo_localidad": "hamlet",
      "latitud": 12.8435782,
      "longitud": -86.0081281,
      "departamento": "Matagalpa (Departemento)"
    },
    {
      "osm_id": "node/4106721401",
      "nombre": "Valle San Andrés",
      "tipo_localidad": "village",
      "latitud": 12.879881,
      "longitud": -86.2285199,
      "departamento": "Matagalpa (Departemento)"
    },
    {
      "osm_id": "node/4106721402",
      "nombre": "Walasá",
      "tipo_localidad": "hamlet",
      "latitud": 13.0298714,
      "longitud": -86.0933499,
      "departamento": "Matagalpa (Departemento)"
    },
    {
      "osm_id": "node/4106721403",
      "nombre": "Yaule Abajo",
      "tipo_localidad": "hamlet",
      "latitud": 12.9084086,
      "longitud": -85.9925284,
      "departamento": "Matagalpa (Departemento)"
    },
    {
      "osm_id": "node/4106721404",
      "nombre": "Yaule Arriba",
      "tipo_localidad": "hamlet",
      "latitud": 12.9194726,
      "longitud": -85.9903397,
      "departamento": "Matagalpa (Departemento)"
    },
    {
      "osm_id": "node/4108828980",
      "nombre": "Agua Fría",
      "tipo_localidad": "hamlet",
      "latitud": 12.6812604,
      "longitud": -86.2169755,
      "departamento": "Matagalpa (Departemento)"
    },
    {
      "osm_id": "node/4108828981",
      "nombre": "Apompuá",
      "tipo_localidad": "village",
      "latitud": 12.7979989,
      "longitud": -86.1101565,
      "departamento": "Matagalpa (Departemento)"
    },
    {
      "osm_id": "node/4108828982",
      "nombre": "La Ceiba",
      "tipo_localidad": "hamlet",
      "latitud": 12.7278506,
      "longitud": -86.2174529,
      "departamento": "Matagalpa (Departemento)"
    },
    {
      "osm_id": "node/4108828983",
      "nombre": "Bacacàn",
      "tipo_localidad": "neighbourhood",
      "latitud": 12.7194992,
      "longitud": -86.2407774,
      "departamento": "Matagalpa (Departemento)"
    },
    {
      "osm_id": "node/4108828985",
      "nombre": "Candelaria",
      "tipo_localidad": "hamlet",
      "latitud": 12.7943423,
      "longitud": -86.0755721,
      "departamento": "Matagalpa (Departemento)"
    },
    {
      "osm_id": "node/4108828986",
      "nombre": "La Rauda",
      "tipo_localidad": "village",
      "latitud": 12.7177639,
      "longitud": -86.2789459,
      "departamento": "Matagalpa (Departemento)"
    },
    {
      "osm_id": "node/4108829290",
      "nombre": "Cuajiniquilapa",
      "tipo_localidad": "hamlet",
      "latitud": 12.7313374,
      "longitud": -86.0636832,
      "departamento": "Matagalpa (Departemento)"
    },
    {
      "osm_id": "node/4108829291",
      "nombre": "Delirio",
      "tipo_localidad": "hamlet",
      "latitud": 12.6916593,
      "longitud": -86.2135797,
      "departamento": "Matagalpa (Departemento)"
    },
    {
      "osm_id": "node/4108829292",
      "nombre": "Dos Montes",
      "tipo_localidad": "hamlet",
      "latitud": 12.7964413,
      "longitud": -86.1326427,
      "departamento": "Matagalpa (Departemento)"
    },
    {
      "osm_id": "node/4108829295",
      "nombre": "El Bordo",
      "tipo_localidad": "hamlet",
      "latitud": 12.684746,
      "longitud": -86.212244,
      "departamento": "Matagalpa (Departemento)"
    },
    {
      "osm_id": "node/4108829296",
      "nombre": "El Carbonal",
      "tipo_localidad": "hamlet",
      "latitud": 12.7522693,
      "longitud": -86.0595177,
      "departamento": "Matagalpa (Departemento)"
    },
    {
      "osm_id": "node/4108829299",
      "nombre": "El Escobillo",
      "tipo_localidad": "hamlet",
      "latitud": 12.8054127,
      "longitud": -86.1517481,
      "departamento": "Matagalpa (Departemento)"
    },
    {
      "osm_id": "node/4108829300",
      "nombre": "El Horno",
      "tipo_localidad": "hamlet",
      "latitud": 12.8041467,
      "longitud": -86.1676617,
      "departamento": "Matagalpa (Departemento)"
    },
    {
      "osm_id": "node/4108829302",
      "nombre": "El Palo de Agua",
      "tipo_localidad": "hamlet",
      "latitud": 12.7064535,
      "longitud": -86.1768013,
      "departamento": "Matagalpa (Departemento)"
    },
    {
      "osm_id": "node/4108829304",
      "nombre": "El Regadio",
      "tipo_localidad": "village",
      "latitud": 12.7453111,
      "longitud": -86.1756855,
      "departamento": "Matagalpa (Departemento)"
    },
    {
      "osm_id": "node/4108829305",
      "nombre": "El Zarzal",
      "tipo_localidad": "hamlet",
      "latitud": 12.7744916,
      "longitud": -86.1471093,
      "departamento": "Matagalpa (Departemento)"
    },
    {
      "osm_id": "node/4108829308",
      "nombre": "Asientos Viejos",
      "tipo_localidad": "village",
      "latitud": 12.721765,
      "longitud": -86.2025505,
      "departamento": "Matagalpa (Departemento)"
    },
    {
      "osm_id": "node/4108829309",
      "nombre": "La China",
      "tipo_localidad": "village",
      "latitud": 12.7978838,
      "longitud": -86.0965845,
      "departamento": "Matagalpa (Departemento)"
    },
    {
      "osm_id": "node/4108829310",
      "nombre": "La Montañita",
      "tipo_localidad": "hamlet",
      "latitud": 12.7462163,
      "longitud": -86.2214118,
      "departamento": "Matagalpa (Departemento)"
    },
    {
      "osm_id": "node/4108829312",
      "nombre": "La Queserea",
      "tipo_localidad": "hamlet",
      "latitud": 12.6798788,
      "longitud": -86.1160037,
      "departamento": "Matagalpa (Departemento)"
    },
    {
      "osm_id": "node/4108829313",
      "nombre": "La Remonta",
      "tipo_localidad": "hamlet",
      "latitud": 12.7297918,
      "longitud": -86.1850733,
      "departamento": "Matagalpa (Departemento)"
    },
    {
      "osm_id": "node/4108829315",
      "nombre": "Las Casas Viejas",
      "tipo_localidad": "village",
      "latitud": 12.7376772,
      "longitud": -86.2142128,
      "departamento": "Matagalpa (Departemento)"
    },
    {
      "osm_id": "node/4108829316",
      "nombre": "Las Cañas",
      "tipo_localidad": "village",
      "latitud": 12.7529239,
      "longitud": -86.2156504,
      "departamento": "Matagalpa (Departemento)"
    },
    {
      "osm_id": "node/4108829318",
      "nombre": "Las Jaguas de Santa Lucía",
      "tipo_localidad": "hamlet",
      "latitud": 12.7648182,
      "longitud": -86.0909787,
      "departamento": "Matagalpa (Departemento)"
    },
    {
      "osm_id": "node/4108829319",
      "nombre": "Las Lajas",
      "tipo_localidad": "hamlet",
      "latitud": 12.797005,
      "longitud": -86.0864189,
      "departamento": "Matagalpa (Departemento)"
    },
    {
      "osm_id": "node/4108829321",
      "nombre": "Las Palmas",
      "tipo_localidad": "hamlet",
      "latitud": 12.7423523,
      "longitud": -86.2409195,
      "departamento": "Matagalpa (Departemento)"
    },
    {
      "osm_id": "node/4108829322",
      "nombre": "Las Playitas",
      "tipo_localidad": "hamlet",
      "latitud": 12.7583149,
      "longitud": -86.0781389,
      "departamento": "Matagalpa (Departemento)"
    },
    {
      "osm_id": "node/4108829323",
      "nombre": "Las Pozas",
      "tipo_localidad": "hamlet",
      "latitud": 12.7506192,
      "longitud": -86.239911,
      "departamento": "Matagalpa (Departemento)"
    },
    {
      "osm_id": "node/4108829324",
      "nombre": "Dos Quebradas",
      "tipo_localidad": "hamlet",
      "latitud": 12.6976906,
      "longitud": -86.1500785,
      "departamento": "Matagalpa (Departemento)"
    },
    {
      "osm_id": "node/4108829325",
      "nombre": "Las Tunas",
      "tipo_localidad": "village",
      "latitud": 12.7999449,
      "longitud": -86.1248979,
      "departamento": "Matagalpa (Departemento)"
    },
    {
      "osm_id": "node/4108829327",
      "nombre": "Los Cocos",
      "tipo_localidad": "hamlet",
      "latitud": 12.7239863,
      "longitud": -86.15989,
      "departamento": "Matagalpa (Departemento)"
    },
    {
      "osm_id": "node/4108829328",
      "nombre": "Los Corrales",
      "tipo_localidad": "hamlet",
      "latitud": 12.7039731,
      "longitud": -86.1997664,
      "departamento": "Matagalpa (Departemento)"
    },
    {
      "osm_id": "node/4108829329",
      "nombre": "Los Encuentros",
      "tipo_localidad": "hamlet",
      "latitud": 12.6770251,
      "longitud": -86.1412768,
      "departamento": "Matagalpa (Departemento)"
    },
    {
      "osm_id": "node/4108829332",
      "nombre": "Palos Verdes",
      "tipo_localidad": "hamlet",
      "latitud": 12.7817007,
      "longitud": -86.1610674,
      "departamento": "Matagalpa (Departemento)"
    },
    {
      "osm_id": "node/4108829333",
      "nombre": "Sabana Verde",
      "tipo_localidad": "hamlet",
      "latitud": 12.8062287,
      "longitud": -86.1406518,
      "departamento": "Matagalpa (Departemento)"
    },
    {
      "osm_id": "node/4108829334",
      "nombre": "San Antonio",
      "tipo_localidad": "hamlet",
      "latitud": 12.7674289,
      "longitud": -86.1250508,
      "departamento": "Matagalpa (Departemento)"
    },
    {
      "osm_id": "node/4108829336",
      "nombre": "San Rafael del Jobo",
      "tipo_localidad": "hamlet",
      "latitud": 12.7745858,
      "longitud": -86.1253512,
      "departamento": "Matagalpa (Departemento)"
    },
    {
      "osm_id": "node/4108829337",
      "nombre": "Santa Barbara",
      "tipo_localidad": "hamlet",
      "latitud": 12.7748271,
      "longitud": -86.2385055,
      "departamento": "Matagalpa (Departemento)"
    },
    {
      "osm_id": "node/4108829341",
      "nombre": "Veracruz",
      "tipo_localidad": "hamlet",
      "latitud": 12.7680148,
      "longitud": -86.1427158,
      "departamento": "Matagalpa (Departemento)"
    },
    {
      "osm_id": "node/4108829342",
      "nombre": "Güiscanal",
      "tipo_localidad": "hamlet",
      "latitud": 12.6430526,
      "longitud": -86.2509966,
      "departamento": "Matagalpa (Departemento)"
    },
    {
      "osm_id": "node/4108836567",
      "nombre": "La Guayaba",
      "tipo_localidad": "hamlet",
      "latitud": 12.6114919,
      "longitud": -86.0060699,
      "departamento": "Matagalpa (Departemento)"
    },
    {
      "osm_id": "node/4108836568",
      "nombre": "Las Pencas",
      "tipo_localidad": "village",
      "latitud": 12.5978316,
      "longitud": -86.0378433,
      "departamento": "Matagalpa (Departemento)"
    },
    {
      "osm_id": "node/4108836569",
      "nombre": "Los Hurtados",
      "tipo_localidad": "hamlet",
      "latitud": 12.598753,
      "longitud": -86.0142399,
      "departamento": "Matagalpa (Departemento)"
    },
    {
      "osm_id": "node/4108836570",
      "nombre": "Poza Larga Nº 1",
      "tipo_localidad": "hamlet",
      "latitud": 12.583361,
      "longitud": -85.9859748,
      "departamento": "Matagalpa (Departemento)"
    },
    {
      "osm_id": "node/4108836571",
      "nombre": "Tecomapita",
      "tipo_localidad": "hamlet",
      "latitud": 12.6448349,
      "longitud": -85.9986992,
      "departamento": "Matagalpa (Departemento)"
    },
    {
      "osm_id": "node/4108864772",
      "nombre": "El Abra",
      "tipo_localidad": "hamlet",
      "latitud": 12.7692482,
      "longitud": -86.0313168,
      "departamento": "Matagalpa (Departemento)"
    },
    {
      "osm_id": "node/4108864773",
      "nombre": "El Bacacán",
      "tipo_localidad": "hamlet",
      "latitud": 12.7759578,
      "longitud": -86.0455487,
      "departamento": "Matagalpa (Departemento)"
    },
    {
      "osm_id": "node/4108864774",
      "nombre": "El Cacao",
      "tipo_localidad": "hamlet",
      "latitud": 12.7859107,
      "longitud": -86.0234526,
      "departamento": "Matagalpa (Departemento)"
    },
    {
      "osm_id": "node/4108864775",
      "nombre": "El Jícaro",
      "tipo_localidad": "hamlet",
      "latitud": 12.7222444,
      "longitud": -86.0474423,
      "departamento": "Matagalpa (Departemento)"
    },
    {
      "osm_id": "node/4108864776",
      "nombre": "El Potrerillo",
      "tipo_localidad": "hamlet",
      "latitud": 12.7807002,
      "longitud": -86.0169241,
      "departamento": "Matagalpa (Departemento)"
    },
    {
      "osm_id": "node/4108864778",
      "nombre": "La Flor",
      "tipo_localidad": "hamlet",
      "latitud": 12.7176527,
      "longitud": -86.0379151,
      "departamento": "Matagalpa (Departemento)"
    },
    {
      "osm_id": "node/4108864779",
      "nombre": "Maunica",
      "tipo_localidad": "hamlet",
      "latitud": 12.7736689,
      "longitud": -86.0308394,
      "departamento": "Matagalpa (Departemento)"
    },
    {
      "osm_id": "node/4108864780",
      "nombre": "San Cristóbal",
      "tipo_localidad": "hamlet",
      "latitud": 12.8042043,
      "longitud": -86.034211,
      "departamento": "Matagalpa (Departemento)"
    },
    {
      "osm_id": "node/4108864781",
      "nombre": "San Esteban",
      "tipo_localidad": "hamlet",
      "latitud": 12.7711028,
      "longitud": -86.0093388,
      "departamento": "Matagalpa (Departemento)"
    },
    {
      "osm_id": "node/4108866587",
      "nombre": "Cuajaniquil",
      "tipo_localidad": "village",
      "latitud": 12.7443962,
      "longitud": -85.9988192,
      "departamento": "Matagalpa (Departemento)"
    },
    {
      "osm_id": "node/4108866588",
      "nombre": "Los Calpules",
      "tipo_localidad": "hamlet",
      "latitud": 12.7381906,
      "longitud": -86.0108569,
      "departamento": "Matagalpa (Departemento)"
    },
    {
      "osm_id": "node/4108870689",
      "nombre": "La Danta",
      "tipo_localidad": "hamlet",
      "latitud": 12.7280016,
      "longitud": -86.0095158,
      "departamento": "Matagalpa (Departemento)"
    },
    {
      "osm_id": "node/4108870691",
      "nombre": "Monte Grande",
      "tipo_localidad": "village",
      "latitud": 12.7342139,
      "longitud": -85.9997526,
      "departamento": "Matagalpa (Departemento)"
    },
    {
      "osm_id": "node/4109002856",
      "nombre": "La Esperanza",
      "tipo_localidad": "hamlet",
      "latitud": 12.6924162,
      "longitud": -86.0452911,
      "departamento": "Matagalpa (Departemento)"
    },
    {
      "osm_id": "node/4109002857",
      "nombre": "El Brasil",
      "tipo_localidad": "hamlet",
      "latitud": 12.6453132,
      "longitud": -86.2401268,
      "departamento": "Matagalpa (Departemento)"
    },
    {
      "osm_id": "node/4109002860",
      "nombre": "El Congo",
      "tipo_localidad": "hamlet",
      "latitud": 12.6890145,
      "longitud": -86.0553763,
      "departamento": "Matagalpa (Departemento)"
    },
    {
      "osm_id": "node/4109002864",
      "nombre": "La Carreta",
      "tipo_localidad": "hamlet",
      "latitud": 12.716266,
      "longitud": -86.1170912,
      "departamento": "Matagalpa (Departemento)"
    },
    {
      "osm_id": "node/4109002871",
      "nombre": "Los Potreros",
      "tipo_localidad": "hamlet",
      "latitud": 12.68657,
      "longitud": -85.8358837,
      "departamento": "Matagalpa (Departemento)"
    },
    {
      "osm_id": "node/4109002872",
      "nombre": "Los Capules",
      "tipo_localidad": "hamlet",
      "latitud": 12.6437847,
      "longitud": -86.185281,
      "departamento": "Matagalpa (Departemento)"
    },
    {
      "osm_id": "node/4110790447",
      "nombre": "Chagüite Viejo",
      "tipo_localidad": "hamlet",
      "latitud": 12.6114365,
      "longitud": -85.9567945,
      "departamento": "Matagalpa (Departemento)"
    },
    {
      "osm_id": "node/4110790449",
      "nombre": "El Coyolito",
      "tipo_localidad": "hamlet",
      "latitud": 12.6140069,
      "longitud": -85.9627973,
      "departamento": "Matagalpa (Departemento)"
    },
    {
      "osm_id": "node/4110790455",
      "nombre": "Las Pencas",
      "tipo_localidad": "hamlet",
      "latitud": 12.6688907,
      "longitud": -86.2782821,
      "departamento": "Matagalpa (Departemento)"
    },
    {
      "osm_id": "node/4114854291",
      "nombre": "El Cerro",
      "tipo_localidad": "hamlet",
      "latitud": 12.8384956,
      "longitud": -86.248049,
      "departamento": "Matagalpa (Departemento)"
    },
    {
      "osm_id": "node/4114854292",
      "nombre": "El Plan",
      "tipo_localidad": "hamlet",
      "latitud": 12.9015548,
      "longitud": -86.2330232,
      "departamento": "Matagalpa (Departemento)"
    },
    {
      "osm_id": "node/4114854295",
      "nombre": "Los Potrerillos",
      "tipo_localidad": "hamlet",
      "latitud": 12.8962316,
      "longitud": -86.2294076,
      "departamento": "Matagalpa (Departemento)"
    },
    {
      "osm_id": "node/4114854391",
      "nombre": "Lugar Patos Verdes",
      "tipo_localidad": "hamlet",
      "latitud": 12.9516383,
      "longitud": -86.1607136,
      "departamento": "Matagalpa (Departemento)"
    },
    {
      "osm_id": "node/4114854392",
      "nombre": "Nacascolo",
      "tipo_localidad": "hamlet",
      "latitud": 12.8692401,
      "longitud": -86.1988653,
      "departamento": "Matagalpa (Departemento)"
    },
    {
      "osm_id": "node/4114854491",
      "nombre": "El Caballo Blanco",
      "tipo_localidad": "hamlet",
      "latitud": 12.9089589,
      "longitud": -86.2192689,
      "departamento": "Matagalpa (Departemento)"
    },
    {
      "osm_id": "node/4114854495",
      "nombre": "Llano El Boquerón",
      "tipo_localidad": "hamlet",
      "latitud": 12.8427635,
      "longitud": -86.2731759,
      "departamento": "Matagalpa (Departemento)"
    },
    {
      "osm_id": "node/4114854496",
      "nombre": "Mal Paso",
      "tipo_localidad": "hamlet",
      "latitud": 12.8571828,
      "longitud": -86.2589683,
      "departamento": "Matagalpa (Departemento)"
    },
    {
      "osm_id": "node/4114854497",
      "nombre": "Sábana Larga",
      "tipo_localidad": "village",
      "latitud": 12.8090499,
      "longitud": -86.2488402,
      "departamento": "Matagalpa (Departemento)"
    },
    {
      "osm_id": "node/4114854691",
      "nombre": "El Zapote",
      "tipo_localidad": "hamlet",
      "latitud": 12.8187296,
      "longitud": -86.2352629,
      "departamento": "Matagalpa (Departemento)"
    },
    {
      "osm_id": "node/4114854792",
      "nombre": "Las Cidras",
      "tipo_localidad": "hamlet",
      "latitud": 12.9020777,
      "longitud": -86.2643085,
      "departamento": "Matagalpa (Departemento)"
    },
    {
      "osm_id": "node/4114854793",
      "nombre": "Villa Julian Roque Cuadra",
      "tipo_localidad": "neighbourhood",
      "latitud": 12.9182713,
      "longitud": -86.1918057,
      "departamento": "Matagalpa (Departemento)"
    },
    {
      "osm_id": "node/4114854794",
      "nombre": "Wiston Castillo Ramírez",
      "tipo_localidad": "hamlet",
      "latitud": 12.7874792,
      "longitud": -86.2719474,
      "departamento": "Matagalpa (Departemento)"
    },
    {
      "osm_id": "node/4114854989",
      "nombre": "El Carrizo",
      "tipo_localidad": "hamlet",
      "latitud": 12.871732,
      "longitud": -86.2680261,
      "departamento": "Matagalpa (Departemento)"
    },
    {
      "osm_id": "node/4114854990",
      "nombre": "San Ramón de La Uva",
      "tipo_localidad": "hamlet",
      "latitud": 12.8248023,
      "longitud": -86.280096,
      "departamento": "Matagalpa (Departemento)"
    },
    {
      "osm_id": "node/4114855189",
      "nombre": "El Tule",
      "tipo_localidad": "hamlet",
      "latitud": 12.8571253,
      "longitud": -86.283658,
      "departamento": "Matagalpa (Departemento)"
    },
    {
      "osm_id": "node/4115514191",
      "nombre": "El Naranjo",
      "tipo_localidad": "hamlet",
      "latitud": 12.9128416,
      "longitud": -86.2665536,
      "departamento": "Matagalpa (Departemento)"
    },
    {
      "osm_id": "node/4115547492",
      "nombre": "Ochoa",
      "tipo_localidad": "hamlet",
      "latitud": 12.8864275,
      "longitud": -86.2584853,
      "departamento": "Matagalpa (Departemento)"
    },
    {
      "osm_id": "node/4540281990",
      "nombre": "El Jobo",
      "tipo_localidad": "village",
      "latitud": 12.9001014,
      "longitud": -85.6009323,
      "departamento": "Matagalpa (Departemento)"
    },
    {
      "osm_id": "node/4663401394",
      "nombre": "Matagalpa",
      "tipo_localidad": "city",
      "latitud": 12.9283899,
      "longitud": -85.9184454,
      "departamento": "Matagalpa (Departemento)"
    },
    {
      "osm_id": "node/5051347363",
      "nombre": "Los Rosales",
      "tipo_localidad": "hamlet",
      "latitud": 12.8156886,
      "longitud": -85.6506299,
      "departamento": "Matagalpa (Departemento)"
    },
    {
      "osm_id": "node/5051353109",
      "nombre": "Piedra de Agua",
      "tipo_localidad": "hamlet",
      "latitud": 12.9662452,
      "longitud": -85.9491022,
      "departamento": "Matagalpa (Departemento)"
    },
    {
      "osm_id": "node/5051353742",
      "nombre": "Guadalupe",
      "tipo_localidad": "village",
      "latitud": 12.875834,
      "longitud": -85.8342016,
      "departamento": "Matagalpa (Departemento)"
    },
    {
      "osm_id": "node/5051354826",
      "nombre": "Las Mercedes",
      "tipo_localidad": "hamlet",
      "latitud": 12.9720277,
      "longitud": -85.9438424,
      "departamento": "Matagalpa (Departemento)"
    },
    {
      "osm_id": "node/5051354827",
      "nombre": "Waswalí Arriba",
      "tipo_localidad": "hamlet",
      "latitud": 12.9507984,
      "longitud": -85.9649531,
      "departamento": "Matagalpa (Departemento)"
    },
    {
      "osm_id": "node/5051355067",
      "nombre": "El Mamonal",
      "tipo_localidad": "hamlet",
      "latitud": 12.7647354,
      "longitud": -85.7409612,
      "departamento": "Matagalpa (Departemento)"
    },
    {
      "osm_id": "node/5051355171",
      "nombre": "El Trapiche",
      "tipo_localidad": "hamlet",
      "latitud": 12.7718251,
      "longitud": -85.641206,
      "departamento": "Matagalpa (Departemento)"
    },
    {
      "osm_id": "node/5051355172",
      "nombre": "El Javillo",
      "tipo_localidad": "hamlet",
      "latitud": 12.7721329,
      "longitud": -85.6311689,
      "departamento": "Matagalpa (Departemento)"
    },
    {
      "osm_id": "node/5051355174",
      "nombre": "Empalme de Tapasle",
      "tipo_localidad": "hamlet",
      "latitud": 12.8038874,
      "longitud": -85.6808951,
      "departamento": "Matagalpa (Departemento)"
    },
    {
      "osm_id": "node/5051357716",
      "nombre": "Piedra Collorada",
      "tipo_localidad": "hamlet",
      "latitud": 12.8363223,
      "longitud": -85.8681847,
      "departamento": "Matagalpa (Departemento)"
    },
    {
      "osm_id": "node/5051357729",
      "nombre": "Rodeo Siles",
      "tipo_localidad": "village",
      "latitud": 12.7881395,
      "longitud": -85.6928909,
      "departamento": "Matagalpa (Departemento)"
    },
    {
      "osm_id": "node/5051357730",
      "nombre": "Las Cuatro Esquinas",
      "tipo_localidad": "neighbourhood",
      "latitud": 12.8502356,
      "longitud": -85.8598751,
      "departamento": "Matagalpa (Departemento)"
    },
    {
      "osm_id": "node/5051357755",
      "nombre": "El Zapote Nº 2",
      "tipo_localidad": "hamlet",
      "latitud": 12.8309491,
      "longitud": -85.8437247,
      "departamento": "Matagalpa (Departemento)"
    },
    {
      "osm_id": "node/5051357828",
      "nombre": "Samulalí",
      "tipo_localidad": "village",
      "latitud": 12.8637568,
      "longitud": -85.8707172,
      "departamento": "Matagalpa (Departemento)"
    },
    {
      "osm_id": "node/5051357926",
      "nombre": "El Chile",
      "tipo_localidad": "hamlet",
      "latitud": 12.8402021,
      "longitud": -85.8216064,
      "departamento": "Matagalpa (Departemento)"
    },
    {
      "osm_id": "node/5051394543",
      "nombre": "Los Valdivia",
      "tipo_localidad": "hamlet",
      "latitud": 12.8976602,
      "longitud": -86.1305918,
      "departamento": "Matagalpa (Departemento)"
    },
    {
      "osm_id": "node/5051395036",
      "nombre": "Monimbo",
      "tipo_localidad": "neighbourhood",
      "latitud": 12.9316633,
      "longitud": -86.2005527,
      "departamento": "Matagalpa (Departemento)"
    },
    {
      "osm_id": "node/5051395801",
      "nombre": "El Ocotal",
      "tipo_localidad": "hamlet",
      "latitud": 12.8684473,
      "longitud": -85.9277984,
      "departamento": "Matagalpa (Departemento)"
    },
    {
      "osm_id": "node/5051396024",
      "nombre": "El Caracol",
      "tipo_localidad": "hamlet",
      "latitud": 12.8672852,
      "longitud": -85.9165702,
      "departamento": "Matagalpa (Departemento)"
    },
    {
      "osm_id": "node/5051396183",
      "nombre": "Santa Rosa",
      "tipo_localidad": "hamlet",
      "latitud": 12.6784939,
      "longitud": -85.9795195,
      "departamento": "Matagalpa (Departemento)"
    },
    {
      "osm_id": "node/5052262707",
      "nombre": "Cumaica",
      "tipo_localidad": "hamlet",
      "latitud": 12.686982,
      "longitud": -85.7103664,
      "departamento": "Matagalpa (Departemento)"
    },
    {
      "osm_id": "node/5052265380",
      "nombre": "La Luna",
      "tipo_localidad": "village",
      "latitud": 12.6811308,
      "longitud": -85.7182817,
      "departamento": "Matagalpa (Departemento)"
    },
    {
      "osm_id": "node/5056486071",
      "nombre": "Castillo Abajo",
      "tipo_localidad": "hamlet",
      "latitud": 12.7242136,
      "longitud": -85.8034784,
      "departamento": "Matagalpa (Departemento)"
    },
    {
      "osm_id": "node/5099023767",
      "nombre": "San Jerónimo de Apatite",
      "tipo_localidad": "hamlet",
      "latitud": 12.8106319,
      "longitud": -85.7366186,
      "departamento": "Matagalpa (Departemento)"
    },
    {
      "osm_id": "node/5099023768",
      "nombre": "El Esquirín",
      "tipo_localidad": "village",
      "latitud": 12.8255403,
      "longitud": -85.6111563,
      "departamento": "Matagalpa (Departemento)"
    },
    {
      "osm_id": "node/5099023771",
      "nombre": "La Providencia",
      "tipo_localidad": "hamlet",
      "latitud": 12.9218042,
      "longitud": -85.8981839,
      "departamento": "Matagalpa (Departemento)"
    },
    {
      "osm_id": "node/5099023832",
      "nombre": "Siares El Toro",
      "tipo_localidad": "hamlet",
      "latitud": 12.9243504,
      "longitud": -85.8743679,
      "departamento": "Matagalpa (Departemento)"
    },
    {
      "osm_id": "node/5099023833",
      "nombre": "La China",
      "tipo_localidad": "hamlet",
      "latitud": 12.9126499,
      "longitud": -85.8679704,
      "departamento": "Matagalpa (Departemento)"
    },
    {
      "osm_id": "node/5099023835",
      "nombre": "Peña La Brisa",
      "tipo_localidad": "hamlet",
      "latitud": 12.8941885,
      "longitud": -85.8694175,
      "departamento": "Matagalpa (Departemento)"
    },
    {
      "osm_id": "node/5099023836",
      "nombre": "Alemania",
      "tipo_localidad": "hamlet",
      "latitud": 12.9066104,
      "longitud": -85.8683303,
      "departamento": "Matagalpa (Departemento)"
    },
    {
      "osm_id": "node/5099023837",
      "nombre": "El Naranjo",
      "tipo_localidad": "hamlet",
      "latitud": 12.8976888,
      "longitud": -85.8034371,
      "departamento": "Matagalpa (Departemento)"
    },
    {
      "osm_id": "node/5099023838",
      "nombre": "El Ciprés",
      "tipo_localidad": "hamlet",
      "latitud": 12.903619,
      "longitud": -85.7939655,
      "departamento": "Matagalpa (Departemento)"
    },
    {
      "osm_id": "node/5099835695",
      "nombre": "Punto 1",
      "tipo_localidad": "hamlet",
      "latitud": 13.0195161,
      "longitud": -85.8745602,
      "departamento": "Matagalpa (Departemento)"
    },
    {
      "osm_id": "node/5099835702",
      "nombre": "Sitio 2 - Barrio 15 de Agosto",
      "tipo_localidad": "neighbourhood",
      "latitud": 12.9365695,
      "longitud": -85.9133442,
      "departamento": "Matagalpa (Departemento)"
    },
    {
      "osm_id": "node/5099835704",
      "nombre": "San Martín",
      "tipo_localidad": "suburb",
      "latitud": 12.9326501,
      "longitud": -85.9104362,
      "departamento": "Matagalpa (Departemento)"
    },
    {
      "osm_id": "node/5099836235",
      "nombre": "El Bonete",
      "tipo_localidad": "hamlet",
      "latitud": 12.7456845,
      "longitud": -85.9237574,
      "departamento": "Matagalpa (Departemento)"
    },
    {
      "osm_id": "node/5099836236",
      "nombre": "El Bonete",
      "tipo_localidad": "hamlet",
      "latitud": 12.7437502,
      "longitud": -85.9230968,
      "departamento": "Matagalpa (Departemento)"
    },
    {
      "osm_id": "node/5099836245",
      "nombre": "Montaña Grande Nº 2",
      "tipo_localidad": "neighbourhood",
      "latitud": 12.7155064,
      "longitud": -85.9220274,
      "departamento": "Matagalpa (Departemento)"
    },
    {
      "osm_id": "node/5099836246",
      "nombre": "Montaña Grande",
      "tipo_localidad": "village",
      "latitud": 12.7129223,
      "longitud": -85.9255436,
      "departamento": "Matagalpa (Departemento)"
    },
    {
      "osm_id": "node/5099836247",
      "nombre": "Apatite",
      "tipo_localidad": "hamlet",
      "latitud": 12.8149669,
      "longitud": -85.7401701,
      "departamento": "Matagalpa (Departemento)"
    },
    {
      "osm_id": "node/5099836248",
      "nombre": "El Tempisque",
      "tipo_localidad": "hamlet",
      "latitud": 12.7061966,
      "longitud": -85.9068909,
      "departamento": "Matagalpa (Departemento)"
    },
    {
      "osm_id": "node/5101016244",
      "nombre": "Santa Ana",
      "tipo_localidad": "hamlet",
      "latitud": 12.9947668,
      "longitud": -85.6943773,
      "departamento": "Matagalpa (Departemento)"
    },
    {
      "osm_id": "node/5101016247",
      "nombre": "Barrio Damesio Blandon",
      "tipo_localidad": "neighbourhood",
      "latitud": 12.9212768,
      "longitud": -85.8402462,
      "departamento": "Matagalpa (Departemento)"
    },
    {
      "osm_id": "node/5101016249",
      "nombre": "Bilwás",
      "tipo_localidad": "hamlet",
      "latitud": 12.8810418,
      "longitud": -85.5790192,
      "departamento": "Matagalpa (Departemento)"
    },
    {
      "osm_id": "node/5101016530",
      "nombre": "El Carmen",
      "tipo_localidad": "hamlet",
      "latitud": 12.9633428,
      "longitud": -85.7832793,
      "departamento": "Matagalpa (Departemento)"
    },
    {
      "osm_id": "node/5101016531",
      "nombre": "La Rosa",
      "tipo_localidad": "village",
      "latitud": 12.9549564,
      "longitud": -85.794112,
      "departamento": "Matagalpa (Departemento)"
    },
    {
      "osm_id": "node/5101126978",
      "nombre": "Jucuapa Oriental",
      "tipo_localidad": "hamlet",
      "latitud": 12.8745844,
      "longitud": -85.9679433,
      "departamento": "Matagalpa (Departemento)"
    },
    {
      "osm_id": "node/5101126979",
      "nombre": "El Limito",
      "tipo_localidad": "hamlet",
      "latitud": 12.8870288,
      "longitud": -85.966873,
      "departamento": "Matagalpa (Departemento)"
    },
    {
      "osm_id": "node/5101126993",
      "nombre": "El Bálsamo",
      "tipo_localidad": "hamlet",
      "latitud": 12.8329359,
      "longitud": -85.9471802,
      "departamento": "Matagalpa (Departemento)"
    },
    {
      "osm_id": "node/5101126994",
      "nombre": "Ojo de Agua",
      "tipo_localidad": "hamlet",
      "latitud": 12.8551786,
      "longitud": -85.9558968,
      "departamento": "Matagalpa (Departemento)"
    },
    {
      "osm_id": "node/5101126998",
      "nombre": "Jucuapa Occidental",
      "tipo_localidad": "hamlet",
      "latitud": 12.8675579,
      "longitud": -85.9409493,
      "departamento": "Matagalpa (Departemento)"
    },
    {
      "osm_id": "node/5101129692",
      "nombre": "La Mesas",
      "tipo_localidad": "hamlet",
      "latitud": 12.8462914,
      "longitud": -85.979632,
      "departamento": "Matagalpa (Departemento)"
    },
    {
      "osm_id": "node/5101129693",
      "nombre": "El Ocote",
      "tipo_localidad": "hamlet",
      "latitud": 12.8532931,
      "longitud": -85.9366883,
      "departamento": "Matagalpa (Departemento)"
    },
    {
      "osm_id": "node/5101129694",
      "nombre": "Los Ángeles",
      "tipo_localidad": "hamlet",
      "latitud": 12.840767,
      "longitud": -85.9104418,
      "departamento": "Matagalpa (Departemento)"
    },
    {
      "osm_id": "node/5101129695",
      "nombre": "Jucuapa Arriba",
      "tipo_localidad": "hamlet",
      "latitud": 12.8723821,
      "longitud": -85.9453122,
      "departamento": "Matagalpa (Departemento)"
    },
    {
      "osm_id": "node/5101129698",
      "nombre": "Las Mercedes",
      "tipo_localidad": "hamlet",
      "latitud": 12.8646829,
      "longitud": -85.9064787,
      "departamento": "Matagalpa (Departemento)"
    },
    {
      "osm_id": "node/5101131271",
      "nombre": "El Portillo de San Pedro",
      "tipo_localidad": "hamlet",
      "latitud": 12.8810271,
      "longitud": -85.9653469,
      "departamento": "Matagalpa (Departemento)"
    },
    {
      "osm_id": "node/5101131272",
      "nombre": "El Chilamate",
      "tipo_localidad": "hamlet",
      "latitud": 12.8563703,
      "longitud": -85.9925609,
      "departamento": "Matagalpa (Departemento)"
    },
    {
      "osm_id": "node/5101131273",
      "nombre": "Bijague Sur",
      "tipo_localidad": "hamlet",
      "latitud": 12.8415747,
      "longitud": -85.9703129,
      "departamento": "Matagalpa (Departemento)"
    },
    {
      "osm_id": "node/5101131274",
      "nombre": "La Labranza",
      "tipo_localidad": "hamlet",
      "latitud": 12.8328907,
      "longitud": -85.9697039,
      "departamento": "Matagalpa (Departemento)"
    },
    {
      "osm_id": "node/5101131275",
      "nombre": "El Bijague",
      "tipo_localidad": "hamlet",
      "latitud": 12.8473744,
      "longitud": -85.9528302,
      "departamento": "Matagalpa (Departemento)"
    },
    {
      "osm_id": "node/5101131821",
      "nombre": "El Rodeo",
      "tipo_localidad": "hamlet",
      "latitud": 12.857189,
      "longitud": -85.9632861,
      "departamento": "Matagalpa (Departemento)"
    },
    {
      "osm_id": "node/5199100525",
      "nombre": "Empalme La Mora",
      "tipo_localidad": "village",
      "latitud": 13.2166482,
      "longitud": -85.7124667,
      "departamento": "Matagalpa (Departemento)"
    },
    {
      "osm_id": "node/5199100529",
      "nombre": "San Francisco",
      "tipo_localidad": "village",
      "latitud": 13.2140324,
      "longitud": -85.6545337,
      "departamento": "Matagalpa (Departemento)"
    },
    {
      "osm_id": "node/5199100532",
      "nombre": "El Carmen Nº 2",
      "tipo_localidad": "hamlet",
      "latitud": 13.2343555,
      "longitud": -85.6186586,
      "departamento": "Matagalpa (Departemento)"
    },
    {
      "osm_id": "node/5199100533",
      "nombre": "El Carmen Nº 3",
      "tipo_localidad": "hamlet",
      "latitud": 13.2467702,
      "longitud": -85.6200854,
      "departamento": "Matagalpa (Departemento)"
    },
    {
      "osm_id": "node/5199100534",
      "nombre": "Finca Las Brisas",
      "tipo_localidad": "hamlet",
      "latitud": 13.2969629,
      "longitud": -85.6258719,
      "departamento": "Matagalpa (Departemento)"
    },
    {
      "osm_id": "node/5199106128",
      "nombre": "Colonia Agricola Nº 1",
      "tipo_localidad": "hamlet",
      "latitud": 13.251992,
      "longitud": -85.6179216,
      "departamento": "Matagalpa (Departemento)"
    },
    {
      "osm_id": "node/5199106129",
      "nombre": "Las Mercedes",
      "tipo_localidad": "hamlet",
      "latitud": 13.2408381,
      "longitud": -85.6398752,
      "departamento": "Matagalpa (Departemento)"
    },
    {
      "osm_id": "node/5199107123",
      "nombre": "El Tabaco",
      "tipo_localidad": "village",
      "latitud": 13.3189615,
      "longitud": -85.6299599,
      "departamento": "Matagalpa (Departemento)"
    },
    {
      "osm_id": "node/5343011306",
      "nombre": "La Corona",
      "tipo_localidad": "hamlet",
      "latitud": 12.9687519,
      "longitud": -85.7917732,
      "departamento": "Matagalpa (Departemento)"
    },
    {
      "osm_id": "node/5467729195",
      "nombre": "Las Pozas",
      "tipo_localidad": "hamlet",
      "latitud": 12.6749836,
      "longitud": -86.1829714,
      "departamento": "Matagalpa (Departemento)"
    },
    {
      "osm_id": "node/5467729763",
      "nombre": "La Palma",
      "tipo_localidad": "hamlet",
      "latitud": 12.6679986,
      "longitud": -86.1964796,
      "departamento": "Matagalpa (Departemento)"
    },
    {
      "osm_id": "node/5686076021",
      "nombre": "Barrio El Papalote",
      "tipo_localidad": "neighbourhood",
      "latitud": 12.8563602,
      "longitud": -86.1102032,
      "departamento": "Matagalpa (Departemento)"
    },
    {
      "osm_id": "node/5686076024",
      "nombre": "Barrio Diriangén",
      "tipo_localidad": "neighbourhood",
      "latitud": 12.8581437,
      "longitud": -86.1007144,
      "departamento": "Matagalpa (Departemento)"
    },
    {
      "osm_id": "node/5996487946",
      "nombre": "Buenos Aires",
      "tipo_localidad": "hamlet",
      "latitud": 13.2482884,
      "longitud": -85.7217972,
      "departamento": "Matagalpa (Departemento)"
    },
    {
      "osm_id": "node/6760319686",
      "nombre": "Guanuca",
      "tipo_localidad": "neighbourhood",
      "latitud": 12.931835,
      "longitud": -85.9106754,
      "departamento": "Matagalpa (Departemento)"
    },
    {
      "osm_id": "node/6777282208",
      "nombre": "San Pedro",
      "tipo_localidad": "hamlet",
      "latitud": 12.8886726,
      "longitud": -86.1317,
      "departamento": "Matagalpa (Departemento)"
    },
    {
      "osm_id": "node/8456367203",
      "nombre": "Aranjuez",
      "tipo_localidad": "hamlet",
      "latitud": 13.0306149,
      "longitud": -85.9068248,
      "departamento": "Matagalpa (Departemento)"
    },
    {
      "osm_id": "node/8456367280",
      "nombre": "Molino Norte",
      "tipo_localidad": "village",
      "latitud": 12.9607163,
      "longitud": -85.9177069,
      "departamento": "Matagalpa (Departemento)"
    },
    {
      "osm_id": "node/8456368262",
      "nombre": "Los Lipes",
      "tipo_localidad": "village",
      "latitud": 12.9725199,
      "longitud": -85.9201856,
      "departamento": "Matagalpa (Departemento)"
    },
    {
      "osm_id": "node/8456371827",
      "nombre": "Barrio Walter Mendoza",
      "tipo_localidad": "neighbourhood",
      "latitud": 12.9425363,
      "longitud": -85.9200638,
      "departamento": "Matagalpa (Departemento)"
    },
    {
      "osm_id": "node/8456408884",
      "nombre": "Llano Grande",
      "tipo_localidad": "village",
      "latitud": 12.9625236,
      "longitud": -85.9359302,
      "departamento": "Matagalpa (Departemento)"
    },
    {
      "osm_id": "node/8739862763",
      "nombre": "Yahosca",
      "tipo_localidad": "hamlet",
      "latitud": 13.2626211,
      "longitud": -85.456422,
      "departamento": "Matagalpa (Departemento)"
    },
    {
      "osm_id": "node/8837323579",
      "nombre": "San José de Umure",
      "tipo_localidad": "hamlet",
      "latitud": 12.9940177,
      "longitud": -86.0051131,
      "departamento": "Matagalpa (Departemento)"
    },
    {
      "osm_id": "node/8837354839",
      "nombre": "La Doble",
      "tipo_localidad": "hamlet",
      "latitud": 13.144133,
      "longitud": -85.796669,
      "departamento": "Matagalpa (Departemento)"
    },
    {
      "osm_id": "node/8860576881",
      "nombre": "Ronald Paredes",
      "tipo_localidad": "hamlet",
      "latitud": 13.2337681,
      "longitud": -85.7284389,
      "departamento": "Matagalpa (Departemento)"
    },
    {
      "osm_id": "node/9155808920",
      "nombre": "Valle La Isla",
      "tipo_localidad": "hamlet",
      "latitud": 13.0665901,
      "longitud": -85.7924707,
      "departamento": "Matagalpa (Departemento)"
    },
    {
      "osm_id": "node/9994063929",
      "nombre": "San Auló",
      "tipo_localidad": "hamlet",
      "latitud": 13.1489643,
      "longitud": -85.1364148,
      "departamento": "Matagalpa (Departemento)"
    },
    {
      "osm_id": "node/9994063930",
      "nombre": "San Andrés de Bosque",
      "tipo_localidad": "village",
      "latitud": 13.1681557,
      "longitud": -85.1275313,
      "departamento": "Matagalpa (Departemento)"
    },
    {
      "osm_id": "node/10045371975",
      "nombre": "La Estancia",
      "tipo_localidad": "hamlet",
      "latitud": 13.0188684,
      "longitud": -86.0918176,
      "departamento": "Matagalpa (Departemento)"
    },
    {
      "osm_id": "node/10045371976",
      "nombre": "Agua Zarca",
      "tipo_localidad": "hamlet",
      "latitud": 13.0093246,
      "longitud": -86.0992312,
      "departamento": "Matagalpa (Departemento)"
    },
    {
      "osm_id": "node/10050915990",
      "nombre": "El Pájaro",
      "tipo_localidad": "hamlet",
      "latitud": 13.3001562,
      "longitud": -85.4921615,
      "departamento": "Matagalpa (Departemento)"
    },
    {
      "osm_id": "node/10050917012",
      "nombre": "La Granja",
      "tipo_localidad": "hamlet",
      "latitud": 13.3237231,
      "longitud": -85.4920784,
      "departamento": "Matagalpa (Departemento)"
    },
    {
      "osm_id": "node/10050991389",
      "nombre": "Kiwaska",
      "tipo_localidad": "hamlet",
      "latitud": 13.2057349,
      "longitud": -85.3925175,
      "departamento": "Matagalpa (Departemento)"
    },
    {
      "osm_id": "node/10052277287",
      "nombre": "Kuskawás",
      "tipo_localidad": "village",
      "latitud": 13.1572151,
      "longitud": -85.4406095,
      "departamento": "Matagalpa (Departemento)"
    },
    {
      "osm_id": "node/10052277301",
      "nombre": "Bocana de Mancera",
      "tipo_localidad": "hamlet",
      "latitud": 13.234379,
      "longitud": -85.4706609,
      "departamento": "Matagalpa (Departemento)"
    },
    {
      "osm_id": "node/10052277314",
      "nombre": "Las Brisas",
      "tipo_localidad": "hamlet",
      "latitud": 13.2734582,
      "longitud": -85.493457,
      "departamento": "Matagalpa (Departemento)"
    },
    {
      "osm_id": "node/10052277315",
      "nombre": "La Esperanza",
      "tipo_localidad": "hamlet",
      "latitud": 13.2674421,
      "longitud": -85.472576,
      "departamento": "Matagalpa (Departemento)"
    },
    {
      "osm_id": "node/10052277316",
      "nombre": "Yahosca Central",
      "tipo_localidad": "hamlet",
      "latitud": 13.2609521,
      "longitud": -85.4516843,
      "departamento": "Matagalpa (Departemento)"
    },
    {
      "osm_id": "node/10052325070",
      "nombre": "El Manzano",
      "tipo_localidad": "hamlet",
      "latitud": 13.2118296,
      "longitud": -85.410558,
      "departamento": "Matagalpa (Departemento)"
    },
    {
      "osm_id": "node/10052325077",
      "nombre": "Bilampi La Esperanza",
      "tipo_localidad": "hamlet",
      "latitud": 13.1711957,
      "longitud": -85.4034019,
      "departamento": "Matagalpa (Departemento)"
    },
    {
      "osm_id": "node/10052325083",
      "nombre": "Kiwaska Arriba",
      "tipo_localidad": "hamlet",
      "latitud": 13.1897847,
      "longitud": -85.4425192,
      "departamento": "Matagalpa (Departemento)"
    },
    {
      "osm_id": "node/10052325088",
      "nombre": "El Achiote",
      "tipo_localidad": "hamlet",
      "latitud": 13.2054895,
      "longitud": -85.4586018,
      "departamento": "Matagalpa (Departemento)"
    },
    {
      "osm_id": "node/10052383396",
      "nombre": "San Antonio",
      "tipo_localidad": "hamlet",
      "latitud": 13.1056606,
      "longitud": -85.2463692,
      "departamento": "Matagalpa (Departemento)"
    },
    {
      "osm_id": "node/10053675231",
      "nombre": "Los Planes",
      "tipo_localidad": "hamlet",
      "latitud": 13.2498146,
      "longitud": -85.4171536,
      "departamento": "Matagalpa (Departemento)"
    },
    {
      "osm_id": "node/10067316849",
      "nombre": "La Majada",
      "tipo_localidad": "hamlet",
      "latitud": 12.9631578,
      "longitud": -86.1944604,
      "departamento": "Matagalpa (Departemento)"
    },
    {
      "osm_id": "node/10067502377",
      "nombre": "Los Ochotillos",
      "tipo_localidad": "hamlet",
      "latitud": 12.8750162,
      "longitud": -86.2487966,
      "departamento": "Matagalpa (Departemento)"
    },
    {
      "osm_id": "node/10067502378",
      "nombre": "La Pila",
      "tipo_localidad": "hamlet",
      "latitud": 12.8731205,
      "longitud": -86.2423218,
      "departamento": "Matagalpa (Departemento)"
    },
    {
      "osm_id": "node/10067502379",
      "nombre": "Casas Viejas",
      "tipo_localidad": "hamlet",
      "latitud": 12.8965061,
      "longitud": -86.2413561,
      "departamento": "Matagalpa (Departemento)"
    },
    {
      "osm_id": "node/10067502403",
      "nombre": "El Cobano",
      "tipo_localidad": "hamlet",
      "latitud": 12.9129302,
      "longitud": -86.2241846,
      "departamento": "Matagalpa (Departemento)"
    },
    {
      "osm_id": "node/10067518647",
      "nombre": "Valle Redondo",
      "tipo_localidad": "hamlet",
      "latitud": 12.9872877,
      "longitud": -86.0151386,
      "departamento": "Matagalpa (Departemento)"
    },
    {
      "osm_id": "node/10067518648",
      "nombre": "San Felipe",
      "tipo_localidad": "hamlet",
      "latitud": 12.9582413,
      "longitud": -86.0121751,
      "departamento": "Matagalpa (Departemento)"
    },
    {
      "osm_id": "node/10067519194",
      "nombre": "Casa Blanca",
      "tipo_localidad": "hamlet",
      "latitud": 12.910206,
      "longitud": -86.1904264,
      "departamento": "Matagalpa (Departemento)"
    },
    {
      "osm_id": "node/10067558448",
      "nombre": "Sébaco Viejo",
      "tipo_localidad": "neighbourhood",
      "latitud": 12.8504701,
      "longitud": -86.0919678,
      "departamento": "Matagalpa (Departemento)"
    },
    {
      "osm_id": "node/10122746549",
      "nombre": "El Caracol",
      "tipo_localidad": "hamlet",
      "latitud": 13.2609937,
      "longitud": -85.624711,
      "departamento": "Matagalpa (Departemento)"
    },
    {
      "osm_id": "node/10124055669",
      "nombre": "Bul Bul",
      "tipo_localidad": "hamlet",
      "latitud": 13.2027528,
      "longitud": -85.6410831,
      "departamento": "Matagalpa (Departemento)"
    },
    {
      "osm_id": "node/10124055672",
      "nombre": "La Rinconada",
      "tipo_localidad": "hamlet",
      "latitud": 13.1866196,
      "longitud": -85.6722397,
      "departamento": "Matagalpa (Departemento)"
    },
    {
      "osm_id": "node/10124055673",
      "nombre": "La Huata",
      "tipo_localidad": "hamlet",
      "latitud": 13.1874292,
      "longitud": -85.7193017,
      "departamento": "Matagalpa (Departemento)"
    },
    {
      "osm_id": "node/10124055680",
      "nombre": "La Isla de Peñas Blancas",
      "tipo_localidad": "hamlet",
      "latitud": 13.2224883,
      "longitud": -85.6876999,
      "departamento": "Matagalpa (Departemento)"
    },
    {
      "osm_id": "node/10124055682",
      "nombre": "La Esperanza",
      "tipo_localidad": "hamlet",
      "latitud": 13.2054163,
      "longitud": -85.7195807,
      "departamento": "Matagalpa (Departemento)"
    },
    {
      "osm_id": "node/10124055683",
      "nombre": "La Estrella",
      "tipo_localidad": "village",
      "latitud": 13.1641755,
      "longitud": -85.7288772,
      "departamento": "Matagalpa (Departemento)"
    },
    {
      "osm_id": "node/10124055684",
      "nombre": "Los Laureles",
      "tipo_localidad": "hamlet",
      "latitud": 13.176586,
      "longitud": -85.7492888,
      "departamento": "Matagalpa (Departemento)"
    },
    {
      "osm_id": "node/10124055685",
      "nombre": "San Martín",
      "tipo_localidad": "hamlet",
      "latitud": 13.1746352,
      "longitud": -85.7438275,
      "departamento": "Matagalpa (Departemento)"
    },
    {
      "osm_id": "node/10124055687",
      "nombre": "Las Torrez",
      "tipo_localidad": "hamlet",
      "latitud": 13.1828851,
      "longitud": -85.7336462,
      "departamento": "Matagalpa (Departemento)"
    },
    {
      "osm_id": "node/10124055715",
      "nombre": "Rancho Alegre",
      "tipo_localidad": "hamlet",
      "latitud": 13.2177987,
      "longitud": -85.5608744,
      "departamento": "Matagalpa (Departemento)"
    },
    {
      "osm_id": "node/10124055716",
      "nombre": "Barrera",
      "tipo_localidad": "hamlet",
      "latitud": 13.1925528,
      "longitud": -85.5345136,
      "departamento": "Matagalpa (Departemento)"
    },
    {
      "osm_id": "node/10124090317",
      "nombre": "San Juan",
      "tipo_localidad": "hamlet",
      "latitud": 13.1828329,
      "longitud": -85.5620599,
      "departamento": "Matagalpa (Departemento)"
    },
    {
      "osm_id": "node/10124090319",
      "nombre": "El Progreso",
      "tipo_localidad": "hamlet",
      "latitud": 13.1773173,
      "longitud": -85.6038004,
      "departamento": "Matagalpa (Departemento)"
    },
    {
      "osm_id": "node/10124090328",
      "nombre": "El Cacao Central",
      "tipo_localidad": "village",
      "latitud": 13.2003869,
      "longitud": -85.5881256,
      "departamento": "Matagalpa (Departemento)"
    },
    {
      "osm_id": "node/10124090330",
      "nombre": "La Providencia",
      "tipo_localidad": "hamlet",
      "latitud": 13.2056149,
      "longitud": -85.5507678,
      "departamento": "Matagalpa (Departemento)"
    },
    {
      "osm_id": "node/10124090331",
      "nombre": "San Antonio",
      "tipo_localidad": "hamlet",
      "latitud": 13.2017292,
      "longitud": -85.5813289,
      "departamento": "Matagalpa (Departemento)"
    },
    {
      "osm_id": "node/10124090332",
      "nombre": "El Carrizal",
      "tipo_localidad": "hamlet",
      "latitud": 13.2052962,
      "longitud": -85.5951477,
      "departamento": "Matagalpa (Departemento)"
    },
    {
      "osm_id": "node/10124090337",
      "nombre": "El Ojoche",
      "tipo_localidad": "hamlet",
      "latitud": 13.2156524,
      "longitud": -85.640316,
      "departamento": "Matagalpa (Departemento)"
    },
    {
      "osm_id": "node/10124090344",
      "nombre": "El Enredo",
      "tipo_localidad": "hamlet",
      "latitud": 13.2660924,
      "longitud": -85.6411073,
      "departamento": "Matagalpa (Departemento)"
    },
    {
      "osm_id": "node/10124090355",
      "nombre": "Julio Ramos Hernandez",
      "tipo_localidad": "hamlet",
      "latitud": 13.2621816,
      "longitud": -85.5840647,
      "departamento": "Matagalpa (Departemento)"
    },
    {
      "osm_id": "node/10124090356",
      "nombre": "El Comején",
      "tipo_localidad": "hamlet",
      "latitud": 13.2623775,
      "longitud": -85.575074,
      "departamento": "Matagalpa (Departemento)"
    },
    {
      "osm_id": "node/10124090358",
      "nombre": "La Quebradita",
      "tipo_localidad": "hamlet",
      "latitud": 13.2598973,
      "longitud": -85.5447972,
      "departamento": "Matagalpa (Departemento)"
    },
    {
      "osm_id": "node/10124090360",
      "nombre": "Santa Rita",
      "tipo_localidad": "village",
      "latitud": 13.2638055,
      "longitud": -85.5406773,
      "departamento": "Matagalpa (Departemento)"
    },
    {
      "osm_id": "node/10124090361",
      "nombre": "El Pital",
      "tipo_localidad": "hamlet",
      "latitud": 13.2685542,
      "longitud": -85.5210597,
      "departamento": "Matagalpa (Departemento)"
    },
    {
      "osm_id": "node/10124090366",
      "nombre": "Mancera Central",
      "tipo_localidad": "hamlet",
      "latitud": 13.2792418,
      "longitud": -85.5067956,
      "departamento": "Matagalpa (Departemento)"
    },
    {
      "osm_id": "node/10124090417",
      "nombre": "La Lana Arriba",
      "tipo_localidad": "hamlet",
      "latitud": 13.3128835,
      "longitud": -85.5790329,
      "departamento": "Matagalpa (Departemento)"
    },
    {
      "osm_id": "node/10124090421",
      "nombre": "Las Brisas (Los Caracoles)",
      "tipo_localidad": "hamlet",
      "latitud": 13.3004067,
      "longitud": -85.6063539,
      "departamento": "Matagalpa (Departemento)"
    },
    {
      "osm_id": "node/10125136663",
      "nombre": "Yasica Norte",
      "tipo_localidad": "village",
      "latitud": 13.0059052,
      "longitud": -85.8088488,
      "departamento": "Matagalpa (Departemento)"
    },
    {
      "osm_id": "node/10133646972",
      "nombre": "Cerro Verde",
      "tipo_localidad": "hamlet",
      "latitud": 13.2314129,
      "longitud": -85.7153428,
      "departamento": "Matagalpa (Departemento)"
    },
    {
      "osm_id": "node/10133646973",
      "nombre": "Santa Rosa",
      "tipo_localidad": "hamlet",
      "latitud": 13.2280055,
      "longitud": -85.7156056,
      "departamento": "Matagalpa (Departemento)"
    },
    {
      "osm_id": "node/10145326014",
      "nombre": "Kaskita",
      "tipo_localidad": "hamlet",
      "latitud": 13.1767374,
      "longitud": -85.1329786,
      "departamento": "Matagalpa (Departemento)"
    },
    {
      "osm_id": "node/10159489916",
      "nombre": "San Antonio",
      "tipo_localidad": "hamlet",
      "latitud": 13.0051327,
      "longitud": -85.1649749,
      "departamento": "Matagalpa (Departemento)"
    },
    {
      "osm_id": "node/10159489922",
      "nombre": "La Envidia",
      "tipo_localidad": "hamlet",
      "latitud": 13.0330528,
      "longitud": -85.1566011,
      "departamento": "Matagalpa (Departemento)"
    },
    {
      "osm_id": "node/10159489953",
      "nombre": "Miraflores",
      "tipo_localidad": "hamlet",
      "latitud": 13.1419591,
      "longitud": -85.1367313,
      "departamento": "Matagalpa (Departemento)"
    },
    {
      "osm_id": "node/10159489964",
      "nombre": "El Salto",
      "tipo_localidad": "village",
      "latitud": 13.0201489,
      "longitud": -85.2119673,
      "departamento": "Matagalpa (Departemento)"
    },
    {
      "osm_id": "node/10159489985",
      "nombre": "La Viva Esperanza",
      "tipo_localidad": "hamlet",
      "latitud": 13.1399688,
      "longitud": -85.2522433,
      "departamento": "Matagalpa (Departemento)"
    },
    {
      "osm_id": "node/10181052317",
      "nombre": "San José de Paiwas",
      "tipo_localidad": "hamlet",
      "latitud": 12.8467123,
      "longitud": -85.2390039,
      "departamento": "Matagalpa (Departemento)"
    },
    {
      "osm_id": "node/10181052402",
      "nombre": "El Socorro",
      "tipo_localidad": "hamlet",
      "latitud": 12.9019286,
      "longitud": -85.1938892,
      "departamento": "Matagalpa (Departemento)"
    },
    {
      "osm_id": "node/10181052408",
      "nombre": "El Refugio",
      "tipo_localidad": "hamlet",
      "latitud": 12.9214163,
      "longitud": -85.2463961,
      "departamento": "Matagalpa (Departemento)"
    },
    {
      "osm_id": "node/10265539057",
      "nombre": "La Isla de Muy Muy",
      "tipo_localidad": "village",
      "latitud": 13.1447435,
      "longitud": -85.3386963,
      "departamento": "Matagalpa (Departemento)"
    },
    {
      "osm_id": "node/10265985052",
      "nombre": "El Carmen",
      "tipo_localidad": "hamlet",
      "latitud": 13.0847558,
      "longitud": -85.4590524,
      "departamento": "Matagalpa (Departemento)"
    },
    {
      "osm_id": "node/10268693060",
      "nombre": "El Prado",
      "tipo_localidad": "village",
      "latitud": 12.5734279,
      "longitud": -86.0392977,
      "departamento": "Matagalpa (Departemento)"
    },
    {
      "osm_id": "node/10277047874",
      "nombre": "El Porvenir",
      "tipo_localidad": "hamlet",
      "latitud": 13.1083618,
      "longitud": -85.2672529,
      "departamento": "Matagalpa (Departemento)"
    },
    {
      "osm_id": "node/10278514541",
      "nombre": "Bocana de Tawa",
      "tipo_localidad": "hamlet",
      "latitud": 13.1385453,
      "longitud": -85.3513268,
      "departamento": "Matagalpa (Departemento)"
    },
    {
      "osm_id": "node/10278514607",
      "nombre": "El Amparo",
      "tipo_localidad": "hamlet",
      "latitud": 13.0755149,
      "longitud": -85.3877968,
      "departamento": "Matagalpa (Departemento)"
    },
    {
      "osm_id": "node/10278534221",
      "nombre": "Palán",
      "tipo_localidad": "hamlet",
      "latitud": 13.0389505,
      "longitud": -85.2587128,
      "departamento": "Matagalpa (Departemento)"
    },
    {
      "osm_id": "node/10278534275",
      "nombre": "Palam",
      "tipo_localidad": "hamlet",
      "latitud": 13.0771922,
      "longitud": -85.2780139,
      "departamento": "Matagalpa (Departemento)"
    },
    {
      "osm_id": "node/10278534282",
      "nombre": "Samaria",
      "tipo_localidad": "hamlet",
      "latitud": 13.0887425,
      "longitud": -85.2803153,
      "departamento": "Matagalpa (Departemento)"
    },
    {
      "osm_id": "node/10278534752",
      "nombre": "San Rafael",
      "tipo_localidad": "hamlet",
      "latitud": 13.0226576,
      "longitud": -85.4280031,
      "departamento": "Matagalpa (Departemento)"
    },
    {
      "osm_id": "node/10278534762",
      "nombre": "Boca de La Mula",
      "tipo_localidad": "hamlet",
      "latitud": 13.0378243,
      "longitud": -85.4994947,
      "departamento": "Matagalpa (Departemento)"
    },
    {
      "osm_id": "node/10278534876",
      "nombre": "Ermita El Sagrado",
      "tipo_localidad": "hamlet",
      "latitud": 13.0798558,
      "longitud": -85.4489203,
      "departamento": "Matagalpa (Departemento)"
    },
    {
      "osm_id": "node/10280759809",
      "nombre": "Cuesta de Mula",
      "tipo_localidad": "hamlet",
      "latitud": 13.0345632,
      "longitud": -85.5423081,
      "departamento": "Matagalpa (Departemento)"
    },
    {
      "osm_id": "node/10280759826",
      "nombre": "Denis Gutiérrez",
      "tipo_localidad": "village",
      "latitud": 13.0008754,
      "longitud": -85.5587554,
      "departamento": "Matagalpa (Departemento)"
    },
    {
      "osm_id": "node/10280759853",
      "nombre": "Corintillo",
      "tipo_localidad": "village",
      "latitud": 13.0286889,
      "longitud": -85.5870849,
      "departamento": "Matagalpa (Departemento)"
    },
    {
      "osm_id": "node/10280759993",
      "nombre": "Villa Nueva",
      "tipo_localidad": "hamlet",
      "latitud": 13.0255374,
      "longitud": -85.6526113,
      "departamento": "Matagalpa (Departemento)"
    },
    {
      "osm_id": "node/10280759995",
      "nombre": "Las Chimbos",
      "tipo_localidad": "hamlet",
      "latitud": 13.0309806,
      "longitud": -85.6489072,
      "departamento": "Matagalpa (Departemento)"
    },
    {
      "osm_id": "node/10280759997",
      "nombre": "Tapasle",
      "tipo_localidad": "hamlet",
      "latitud": 13.0289554,
      "longitud": -85.6304454,
      "departamento": "Matagalpa (Departemento)"
    },
    {
      "osm_id": "node/10280760018",
      "nombre": "San Benito",
      "tipo_localidad": "village",
      "latitud": 13.0681183,
      "longitud": -85.6761959,
      "departamento": "Matagalpa (Departemento)"
    },
    {
      "osm_id": "node/10280760023",
      "nombre": "Aguas Amarillas Nº 2",
      "tipo_localidad": "hamlet",
      "latitud": 13.0310825,
      "longitud": -85.6698901,
      "departamento": "Matagalpa (Departemento)"
    },
    {
      "osm_id": "node/10280760024",
      "nombre": "San Andrés Guapotal",
      "tipo_localidad": "hamlet",
      "latitud": 13.026797,
      "longitud": -85.6932521,
      "departamento": "Matagalpa (Departemento)"
    },
    {
      "osm_id": "node/10280760033",
      "nombre": "La Chimpinilla",
      "tipo_localidad": "hamlet",
      "latitud": 13.0230548,
      "longitud": -85.6964064,
      "departamento": "Matagalpa (Departemento)"
    },
    {
      "osm_id": "node/10280760035",
      "nombre": "La Chocolata",
      "tipo_localidad": "hamlet",
      "latitud": 13.0095598,
      "longitud": -85.7070548,
      "departamento": "Matagalpa (Departemento)"
    },
    {
      "osm_id": "node/10280760051",
      "nombre": "El Roblar",
      "tipo_localidad": "village",
      "latitud": 13.0020175,
      "longitud": -85.7331258,
      "departamento": "Matagalpa (Departemento)"
    },
    {
      "osm_id": "node/10280760063",
      "nombre": "Verapaz",
      "tipo_localidad": "hamlet",
      "latitud": 13.0275339,
      "longitud": -85.7337213,
      "departamento": "Matagalpa (Departemento)"
    },
    {
      "osm_id": "node/10280760064",
      "nombre": "Porfirio Sovalbarro",
      "tipo_localidad": "hamlet",
      "latitud": 13.0383417,
      "longitud": -85.7027847,
      "departamento": "Matagalpa (Departemento)"
    },
    {
      "osm_id": "node/10280760065",
      "nombre": "Ilipo Arriba Nº 1",
      "tipo_localidad": "hamlet",
      "latitud": 13.0416811,
      "longitud": -85.7098014,
      "departamento": "Matagalpa (Departemento)"
    },
    {
      "osm_id": "node/10280760067",
      "nombre": "Hilipo de Abajo",
      "tipo_localidad": "hamlet",
      "latitud": 13.0575573,
      "longitud": -85.7327718,
      "departamento": "Matagalpa (Departemento)"
    },
    {
      "osm_id": "node/10280760089",
      "nombre": "Yale Nº 3",
      "tipo_localidad": "hamlet",
      "latitud": 13.0746083,
      "longitud": -85.6360352,
      "departamento": "Matagalpa (Departemento)"
    },
    {
      "osm_id": "node/10280760097",
      "nombre": "El Porvenir",
      "tipo_localidad": "hamlet",
      "latitud": 13.0688343,
      "longitud": -85.5650962,
      "departamento": "Matagalpa (Departemento)"
    },
    {
      "osm_id": "node/10280760112",
      "nombre": "La Chiripa",
      "tipo_localidad": "hamlet",
      "latitud": 13.1112981,
      "longitud": -85.5518353,
      "departamento": "Matagalpa (Departemento)"
    },
    {
      "osm_id": "node/10280760113",
      "nombre": "San Martín",
      "tipo_localidad": "hamlet",
      "latitud": 13.1007885,
      "longitud": -85.5403514,
      "departamento": "Matagalpa (Departemento)"
    },
    {
      "osm_id": "node/10280760117",
      "nombre": "La Esperanza",
      "tipo_localidad": "hamlet",
      "latitud": 13.11658,
      "longitud": -85.571453,
      "departamento": "Matagalpa (Departemento)"
    },
    {
      "osm_id": "node/10280760118",
      "nombre": "La Lucha",
      "tipo_localidad": "hamlet",
      "latitud": 13.1246726,
      "longitud": -85.5537451,
      "departamento": "Matagalpa (Departemento)"
    },
    {
      "osm_id": "node/10280760119",
      "nombre": "Fàtima",
      "tipo_localidad": "hamlet",
      "latitud": 13.1252106,
      "longitud": -85.5698785,
      "departamento": "Matagalpa (Departemento)"
    },
    {
      "osm_id": "node/10280760126",
      "nombre": "La Tristeza",
      "tipo_localidad": "hamlet",
      "latitud": 13.1518713,
      "longitud": -85.5504432,
      "departamento": "Matagalpa (Departemento)"
    },
    {
      "osm_id": "node/10280760132",
      "nombre": "La Vega",
      "tipo_localidad": "hamlet",
      "latitud": 13.1500561,
      "longitud": -85.5903411,
      "departamento": "Matagalpa (Departemento)"
    },
    {
      "osm_id": "node/10280760284",
      "nombre": "Linda Vista",
      "tipo_localidad": "hamlet",
      "latitud": 13.1182361,
      "longitud": -85.607872,
      "departamento": "Matagalpa (Departemento)"
    },
    {
      "osm_id": "node/10280760302",
      "nombre": "El Destino",
      "tipo_localidad": "hamlet",
      "latitud": 13.1549298,
      "longitud": -85.6412226,
      "departamento": "Matagalpa (Departemento)"
    },
    {
      "osm_id": "node/10280760361",
      "nombre": "Santa Rosa",
      "tipo_localidad": "hamlet",
      "latitud": 13.1599653,
      "longitud": -85.6565434,
      "departamento": "Matagalpa (Departemento)"
    },
    {
      "osm_id": "node/10280760516",
      "nombre": "Las Vegas",
      "tipo_localidad": "hamlet",
      "latitud": 13.1200647,
      "longitud": -85.6817669,
      "departamento": "Matagalpa (Departemento)"
    },
    {
      "osm_id": "node/10280760517",
      "nombre": "San Benito",
      "tipo_localidad": "hamlet",
      "latitud": 13.1193071,
      "longitud": -85.6737363,
      "departamento": "Matagalpa (Departemento)"
    },
    {
      "osm_id": "node/10280760537",
      "nombre": "La Virtud",
      "tipo_localidad": "hamlet",
      "latitud": 13.1243147,
      "longitud": -85.7283019,
      "departamento": "Matagalpa (Departemento)"
    },
    {
      "osm_id": "node/10280760538",
      "nombre": "El Socorro",
      "tipo_localidad": "hamlet",
      "latitud": 13.129761,
      "longitud": -85.719629,
      "departamento": "Matagalpa (Departemento)"
    },