{
  "departamento": "Jinotega (Departamento)",
  "total_registros": 940,
  "lugares": [
    {
      "osm_id": "node/302524295",
      "nombre": "La Concordia",
      "tipo_localidad": "town",
      "latitud": 13.1958419,
      "longitud": -86.1667601,
      "departamento": "Jinotega (Departamento)"
    },
    {
      "osm_id": "node/302524388",
      "nombre": "San Rafael del Norte",
      "tipo_localidad": "town",
      "latitud": 13.2136484,
      "longitud": -86.1105472,
      "departamento": "Jinotega (Departamento)"
    },
    {
      "osm_id": "node/302524561",
      "nombre": "San Sebastián de Yalí",
      "tipo_localidad": "town",
      "latitud": 13.3057416,
      "longitud": -86.1867024,
      "departamento": "Jinotega (Departamento)"
    },
    {
      "osm_id": "node/308197442",
      "nombre": "Las Praderas",
      "tipo_localidad": "town",
      "latitud": 13.3485854,
      "longitud": -85.9431526,
      "departamento": "Jinotega (Departamento)"
    },
    {
      "osm_id": "node/1828105050",
      "nombre": "Suní",
      "tipo_localidad": "village",
      "latitud": 13.1572446,
      "longitud": -86.0988629,
      "departamento": "Jinotega (Departamento)"
    },
    {
      "osm_id": "node/1828757619",
      "nombre": "Las Lomas",
      "tipo_localidad": "village",
      "latitud": 13.1255589,
      "longitud": -86.0439506,
      "departamento": "Jinotega (Departamento)"
    },
    {
      "osm_id": "node/2661561764",
      "nombre": "Ayapal",
      "tipo_localidad": "village",
      "latitud": 13.7761546,
      "longitud": -85.4070564,
      "departamento": "Jinotega (Departamento)"
    },
    {
      "osm_id": "node/2782113151",
      "nombre": "Dulce Nombre",
      "tipo_localidad": "hamlet",
      "latitud": 13.3892445,
      "longitud": -86.0461667,
      "departamento": "Jinotega (Departamento)"
    },
    {
      "osm_id": "node/2782113170",
      "nombre": "La Rica",
      "tipo_localidad": "village",
      "latitud": 13.4086348,
      "longitud": -86.0376724,
      "departamento": "Jinotega (Departamento)"
    },
    {
      "osm_id": "node/2782113187",
      "nombre": "Las Colinas",
      "tipo_localidad": "hamlet",
      "latitud": 13.3736125,
      "longitud": -86.0960004,
      "departamento": "Jinotega (Departamento)"
    },
    {
      "osm_id": "node/2782113191",
      "nombre": "Monte Cristo",
      "tipo_localidad": "hamlet",
      "latitud": 13.385528,
      "longitud": -86.0801656,
      "departamento": "Jinotega (Departamento)"
    },
    {
      "osm_id": "node/2782529149",
      "nombre": "El Caracol",
      "tipo_localidad": "hamlet",
      "latitud": 13.4779102,
      "longitud": -86.0658541,
      "departamento": "Jinotega (Departamento)"
    },
    {
      "osm_id": "node/2782529157",
      "nombre": "Las Chichiguas",
      "tipo_localidad": "hamlet",
      "latitud": 13.4577349,
      "longitud": -86.0438479,
      "departamento": "Jinotega (Departamento)"
    },
    {
      "osm_id": "node/2782531184",
      "nombre": "San Isidro",
      "tipo_localidad": "hamlet",
      "latitud": 13.4313299,
      "longitud": -86.0349575,
      "departamento": "Jinotega (Departamento)"
    },
    {
      "osm_id": "node/2782531185",
      "nombre": "San José",
      "tipo_localidad": "hamlet",
      "latitud": 13.4234967,
      "longitud": -86.0647086,
      "departamento": "Jinotega (Departamento)"
    },
    {
      "osm_id": "node/2782531186",
      "nombre": "Santa Elena",
      "tipo_localidad": "hamlet",
      "latitud": 13.4603993,
      "longitud": -86.027727,
      "departamento": "Jinotega (Departamento)"
    },
    {
      "osm_id": "node/2823816200",
      "nombre": "El Pajarito",
      "tipo_localidad": "hamlet",
      "latitud": 13.4592297,
      "longitud": -85.8581676,
      "departamento": "Jinotega (Departamento)"
    },
    {
      "osm_id": "node/2825314302",
      "nombre": "Estancia Cora",
      "tipo_localidad": "village",
      "latitud": 13.3871312,
      "longitud": -85.9190312,
      "departamento": "Jinotega (Departamento)"
    },
    {
      "osm_id": "node/2838791126",
      "nombre": "Rincón Largo",
      "tipo_localidad": "hamlet",
      "latitud": 13.0262643,
      "longitud": -85.9602103,
      "departamento": "Jinotega (Departamento)"
    },
    {
      "osm_id": "node/2840490039",
      "nombre": "La Fundadora",
      "tipo_localidad": "village",
      "latitud": 13.0598712,
      "longitud": -85.9120434,
      "departamento": "Jinotega (Departamento)"
    },
    {
      "osm_id": "node/2840490040",
      "nombre": "Las Lajas",
      "tipo_localidad": "hamlet",
      "latitud": 13.0094655,
      "longitud": -85.9533026,
      "departamento": "Jinotega (Departamento)"
    },
    {
      "osm_id": "node/2840490041",
      "nombre": "Ocotal Espeso",
      "tipo_localidad": "village",
      "latitud": 13.0150194,
      "longitud": -85.9450441,
      "departamento": "Jinotega (Departamento)"
    },
    {
      "osm_id": "node/2840490095",
      "nombre": "San José de Las Latas",
      "tipo_localidad": "village",
      "latitud": 13.056879,
      "longitud": -85.934205,
      "departamento": "Jinotega (Departamento)"
    },
    {
      "osm_id": "node/2851898784",
      "nombre": "Chinchinquirá",
      "tipo_localidad": "hamlet",
      "latitud": 13.0388803,
      "longitud": -86.002919,
      "departamento": "Jinotega (Departamento)"
    },
    {
      "osm_id": "node/2851898792",
      "nombre": "Portillo del Matasano",
      "tipo_localidad": "hamlet",
      "latitud": 13.0075702,
      "longitud": -86.0210796,
      "departamento": "Jinotega (Departamento)"
    },
    {
      "osm_id": "node/2889304653",
      "nombre": "El Lirio",
      "tipo_localidad": "hamlet",
      "latitud": 13.6998878,
      "longitud": -85.671446,
      "departamento": "Jinotega (Departamento)"
    },
    {
      "osm_id": "node/2889304661",
      "nombre": "Panka Dákura",
      "tipo_localidad": "village",
      "latitud": 14.2816749,
      "longitud": -85.16475,
      "departamento": "Jinotega (Departamento)"
    },
    {
      "osm_id": "node/3839077798",
      "nombre": "San José de Bocay",
      "tipo_localidad": "town",
      "latitud": 13.5425209,
      "longitud": -85.5401699,
      "departamento": "Jinotega (Departamento)"
    },
    {
      "osm_id": "node/3873062482",
      "nombre": "Ulwaskin I",
      "tipo_localidad": "hamlet",
      "latitud": 14.0469296,
      "longitud": -85.5304413,
      "departamento": "Jinotega (Departamento)"
    },
    {
      "osm_id": "node/3873062484",
      "nombre": "La Marrana",
      "tipo_localidad": "hamlet",
      "latitud": 14.0868103,
      "longitud": -85.4909243,
      "departamento": "Jinotega (Departamento)"
    },
    {
      "osm_id": "node/3873114026",
      "nombre": "Pils",
      "tipo_localidad": "hamlet",
      "latitud": 14.1050734,
      "longitud": -85.4389114,
      "departamento": "Jinotega (Departamento)"
    },
    {
      "osm_id": "node/3873114027",
      "nombre": "Pliscito",
      "tipo_localidad": "village",
      "latitud": 14.1152723,
      "longitud": -85.4250639,
      "departamento": "Jinotega (Departamento)"
    },
    {
      "osm_id": "node/3873152232",
      "nombre": "Kauhrutara",
      "tipo_localidad": "hamlet",
      "latitud": 14.1791227,
      "longitud": -85.3799328,
      "departamento": "Jinotega (Departamento)"
    },
    {
      "osm_id": "node/3873152237",
      "nombre": "Pyu - Kiwayang",
      "tipo_localidad": "hamlet",
      "latitud": 14.1930064,
      "longitud": -85.3788755,
      "departamento": "Jinotega (Departamento)"
    },
    {
      "osm_id": "node/3873152238",
      "nombre": "Kiwayan",
      "tipo_localidad": "hamlet",
      "latitud": 14.2547819,
      "longitud": -85.2482773,
      "departamento": "Jinotega (Departamento)"
    },
    {
      "osm_id": "node/3873152244",
      "nombre": "Wamiwás",
      "tipo_localidad": "hamlet",
      "latitud": 14.3566303,
      "longitud": -85.1972634,
      "departamento": "Jinotega (Departamento)"
    },
    {
      "osm_id": "node/3873175320",
      "nombre": "Arasahuika",
      "tipo_localidad": "hamlet",
      "latitud": 14.5403085,
      "longitud": -85.1447241,
      "departamento": "Jinotega (Departamento)"
    },
    {
      "osm_id": "node/3873175321",
      "nombre": "Labina",
      "tipo_localidad": "hamlet",
      "latitud": 14.5497921,
      "longitud": -85.1404084,
      "departamento": "Jinotega (Departamento)"
    },
    {
      "osm_id": "node/3885628372",
      "nombre": "Wiwilí de Jinotega",
      "tipo_localidad": "town",
      "latitud": 13.6200373,
      "longitud": -85.8181812,
      "departamento": "Jinotega (Departamento)"
    },
    {
      "osm_id": "node/3921241367",
      "nombre": "Aniwas",
      "tipo_localidad": "village",
      "latitud": 14.4807422,
      "longitud": -85.1618056,
      "departamento": "Jinotega (Departamento)"
    },
    {
      "osm_id": "node/3921241370",
      "nombre": "San Andrés de Amaywás",
      "tipo_localidad": "village",
      "latitud": 14.31318,
      "longitud": -85.1731585,
      "departamento": "Jinotega (Departamento)"
    },
    {
      "osm_id": "node/3921241373",
      "nombre": "Pankawás",
      "tipo_localidad": "village",
      "latitud": 14.2518507,
      "longitud": -85.2178857,
      "departamento": "Jinotega (Departamento)"
    },
    {
      "osm_id": "node/3921241375",
      "nombre": "San Juan de Buena Vista",
      "tipo_localidad": "hamlet",
      "latitud": 14.4503663,
      "longitud": -85.1839777,
      "departamento": "Jinotega (Departamento)"
    },
    {
      "osm_id": "node/3921241376",
      "nombre": "Raití",
      "tipo_localidad": "village",
      "latitud": 14.5935783,
      "longitud": -85.0248913,
      "departamento": "Jinotega (Departamento)"
    },
    {
      "osm_id": "node/3921241377",
      "nombre": "Walakitàn",
      "tipo_localidad": "village",
      "latitud": 14.5561334,
      "longitud": -85.0718476,
      "departamento": "Jinotega (Departamento)"
    },
    {
      "osm_id": "node/3929079858",
      "nombre": "Puluwás (Boka Amak Wás)",
      "tipo_localidad": "hamlet",
      "latitud": 14.2230539,
      "longitud": -85.1191634,
      "departamento": "Jinotega (Departamento)"
    },
    {
      "osm_id": "node/4253554378",
      "nombre": "Pueblo Nuevo",
      "tipo_localidad": "village",
      "latitud": 13.177251,
      "longitud": -85.9156844,
      "departamento": "Jinotega (Departamento)"
    },
    {
      "osm_id": "node/4403634895",
      "nombre": "Barrio Germán Pomares I Etapa",
      "tipo_localidad": "neighbourhood",
      "latitud": 13.0996626,
      "longitud": -86.0049417,
      "departamento": "Jinotega (Departamento)"
    },
    {
      "osm_id": "node/4403634896",
      "nombre": "Barrio Germán Pomares II Etapa",
      "tipo_localidad": "neighbourhood",
      "latitud": 13.0978287,
      "longitud": -86.0059638,
      "departamento": "Jinotega (Departamento)"
    },
    {
      "osm_id": "node/4403783542",
      "nombre": "Barrio San Isidro",
      "tipo_localidad": "neighbourhood",
      "latitud": 13.0854496,
      "longitud": -86.0044938,
      "departamento": "Jinotega (Departamento)"
    },
    {
      "osm_id": "node/4406069699",
      "nombre": "Sábana Grande",
      "tipo_localidad": "village",
      "latitud": 13.1895588,
      "longitud": -86.1110282,
      "departamento": "Jinotega (Departamento)"
    },
    {
      "osm_id": "node/4427753505",
      "nombre": "Barrio 20 de Mayo",
      "tipo_localidad": "neighbourhood",
      "latitud": 13.087407,
      "longitud": -85.999654,
      "departamento": "Jinotega (Departamento)"
    },
    {
      "osm_id": "node/4427768115",
      "nombre": "Barrio Carlos Núñez",
      "tipo_localidad": "neighbourhood",
      "latitud": 13.0835849,
      "longitud": -85.9919614,
      "departamento": "Jinotega (Departamento)"
    },
    {
      "osm_id": "node/4427768116",
      "nombre": "Barrio San Cristóbal",
      "tipo_localidad": "neighbourhood",
      "latitud": 13.0889536,
      "longitud": -85.9953731,
      "departamento": "Jinotega (Departamento)"
    },
    {
      "osm_id": "node/4427768117",
      "nombre": "Barrio Sandino",
      "tipo_localidad": "neighbourhood",
      "latitud": 13.0930422,
      "longitud": -85.9941634,
      "departamento": "Jinotega (Departamento)"
    },
    {
      "osm_id": "node/4427768118",
      "nombre": "Barrio 19 de Julio",
      "tipo_localidad": "neighbourhood",
      "latitud": 13.0973501,
      "longitud": -86.0000349,
      "departamento": "Jinotega (Departamento)"
    },
    {
      "osm_id": "node/4427768119",
      "nombre": "Barrio Carlos Rizo I Etapa",
      "tipo_localidad": "neighbourhood",
      "latitud": 13.1014464,
      "longitud": -85.9985544,
      "departamento": "Jinotega (Departamento)"
    },
    {
      "osm_id": "node/4427777720",
      "nombre": "Barrio Los Ángeles",
      "tipo_localidad": "neighbourhood",
      "latitud": 13.0802512,
      "longitud": -85.9992221,
      "departamento": "Jinotega (Departamento)"
    },
    {
      "osm_id": "node/4428359990",
      "nombre": "Cuatro Esquinas",
      "tipo_localidad": "neighbourhood",
      "latitud": 13.0589132,
      "longitud": -86.0006439,
      "departamento": "Jinotega (Departamento)"
    },
    {
      "osm_id": "node/4428359993",
      "nombre": "Barrio Amanda López",
      "tipo_localidad": "neighbourhood",
      "latitud": 13.0804811,
      "longitud": -86.0022481,
      "departamento": "Jinotega (Departamento)"
    },
    {
      "osm_id": "node/4428359994",
      "nombre": "Barrio Róger Hamguien II Etapa",
      "tipo_localidad": "neighbourhood",
      "latitud": 13.0816804,
      "longitud": -85.9942765,
      "departamento": "Jinotega (Departamento)"
    },
    {
      "osm_id": "node/4428359995",
      "nombre": "Villa La Cruz I Etapa",
      "tipo_localidad": "neighbourhood",
      "latitud": 13.0942972,
      "longitud": -86.0072106,
      "departamento": "Jinotega (Departamento)"
    },
    {
      "osm_id": "node/4428362823",
      "nombre": "Barrio Panorama",
      "tipo_localidad": "neighbourhood",
      "latitud": 13.0784198,
      "longitud": -85.9946788,
      "departamento": "Jinotega (Departamento)"
    },
    {
      "osm_id": "node/4428362824",
      "nombre": "Barrio Daniel Teller",
      "tipo_localidad": "neighbourhood",
      "latitud": 13.0795955,
      "longitud": -86.0010249,
      "departamento": "Jinotega (Departamento)"
    },
    {
      "osm_id": "node/4428363383",
      "nombre": "Villa Valencia I Etapa",
      "tipo_localidad": "neighbourhood",
      "latitud": 13.1038552,
      "longitud": -86.0010141,
      "departamento": "Jinotega (Departamento)"
    },
    {
      "osm_id": "node/4428402233",
      "nombre": "El Portillo",
      "tipo_localidad": "hamlet",
      "latitud": 13.1331824,
      "longitud": -86.0132985,
      "departamento": "Jinotega (Departamento)"
    },
    {
      "osm_id": "node/4439782781",
      "nombre": "Mil Flores",
      "tipo_localidad": "hamlet",
      "latitud": 13.0551391,
      "longitud": -85.9568517,
      "departamento": "Jinotega (Departamento)"
    },
    {
      "osm_id": "node/4439804217",
      "nombre": "Barrio Linda Vista Sur",
      "tipo_localidad": "neighbourhood",
      "latitud": 13.0749705,
      "longitud": -85.9943424,
      "departamento": "Jinotega (Departamento)"
    },
    {
      "osm_id": "node/4439804218",
      "nombre": "Barrio Omar García",
      "tipo_localidad": "neighbourhood",
      "latitud": 13.0937419,
      "longitud": -86.0041083,
      "departamento": "Jinotega (Departamento)"
    },
    {
      "osm_id": "node/4439804219",
      "nombre": "Barrio El Jocote",
      "tipo_localidad": "neighbourhood",
      "latitud": 13.0927412,
      "longitud": -85.9977165,
      "departamento": "Jinotega (Departamento)"
    },
    {
      "osm_id": "node/4439804220",
      "nombre": "Barrio San Antonio",
      "tipo_localidad": "neighbourhood",
      "latitud": 13.1011063,
      "longitud": -86.0033975,
      "departamento": "Jinotega (Departamento)"
    },
    {
      "osm_id": "node/4439804221",
      "nombre": "Villa Norte",
      "tipo_localidad": "neighbourhood",
      "latitud": 13.1032066,
      "longitud": -85.998017,
      "departamento": "Jinotega (Departamento)"
    },
    {
      "osm_id": "node/4537827498",
      "nombre": "Llano de La Cruz",
      "tipo_localidad": "village",
      "latitud": 13.1249086,
      "longitud": -86.0094202,
      "departamento": "Jinotega (Departamento)"
    },
    {
      "osm_id": "node/4567220429",
      "nombre": "Barrio Ernesto Rosales",
      "tipo_localidad": "neighbourhood",
      "latitud": 13.0900759,
      "longitud": -86.0005221,
      "departamento": "Jinotega (Departamento)"
    },
    {
      "osm_id": "node/4567220430",
      "nombre": "Barrio Gracias a Dios",
      "tipo_localidad": "neighbourhood",
      "latitud": 13.0942965,
      "longitud": -85.9974992,
      "departamento": "Jinotega (Departamento)"
    },
    {
      "osm_id": "node/4567220431",
      "nombre": "Barrio Centro América",
      "tipo_localidad": "neighbourhood",
      "latitud": 13.0834406,
      "longitud": -86.0012904,
      "departamento": "Jinotega (Departamento)"
    },
    {
      "osm_id": "node/4567245888",
      "nombre": "Barrio Benjamín Zeledón",
      "tipo_localidad": "neighbourhood",
      "latitud": 13.0847752,
      "longitud": -85.9941813,
      "departamento": "Jinotega (Departamento)"
    },
    {
      "osm_id": "node/4567246590",
      "nombre": "Barrio Santiago Zeledón",
      "tipo_localidad": "neighbourhood",
      "latitud": 13.0834923,
      "longitud": -85.9980811,
      "departamento": "Jinotega (Departamento)"
    },
    {
      "osm_id": "node/4567246591",
      "nombre": "Barrio Ducualí",
      "tipo_localidad": "neighbourhood",
      "latitud": 13.0935768,
      "longitud": -86.0004576,
      "departamento": "Jinotega (Departamento)"
    },
    {
      "osm_id": "node/4751725262",
      "nombre": "Las Trincheras",
      "tipo_localidad": "neighbourhood",
      "latitud": 13.1086336,
      "longitud": -86.0050816,
      "departamento": "Jinotega (Departamento)"
    },
    {
      "osm_id": "node/4751766749",
      "nombre": "Los Papales",
      "tipo_localidad": "hamlet",
      "latitud": 13.089508,
      "longitud": -85.9828252,
      "departamento": "Jinotega (Departamento)"
    },
    {
      "osm_id": "node/4924751205",
      "nombre": "Tomatoya",
      "tipo_localidad": "village",
      "latitud": 13.1520377,
      "longitud": -86.0623274,
      "departamento": "Jinotega (Departamento)"
    },
    {
      "osm_id": "node/4943288433",
      "nombre": "La Montañita",
      "tipo_localidad": "hamlet",
      "latitud": 13.0808288,
      "longitud": -86.0201817,
      "departamento": "Jinotega (Departamento)"
    },
    {
      "osm_id": "node/5199106133",
      "nombre": "La Chata",
      "tipo_localidad": "hamlet",
      "latitud": 13.3441341,
      "longitud": -85.6520151,
      "departamento": "Jinotega (Departamento)"
    },
    {
      "osm_id": "node/5343019976",
      "nombre": "El Destino",
      "tipo_localidad": "hamlet",
      "latitud": 13.4877681,
      "longitud": -85.4315633,
      "departamento": "Jinotega (Departamento)"
    },
    {
      "osm_id": "node/5794682477",
      "nombre": "Barrio Linda Vista",
      "tipo_localidad": "neighbourhood",
      "latitud": 13.0851088,
      "longitud": -85.9970956,
      "departamento": "Jinotega (Departamento)"
    },
    {
      "osm_id": "node/5810734912",
      "nombre": "Barrio Camilo Ortega",
      "tipo_localidad": "neighbourhood",
      "latitud": 13.0950713,
      "longitud": -85.995969,
      "departamento": "Jinotega (Departamento)"
    },
    {
      "osm_id": "node/5810748815",
      "nombre": "Barrio Esquipulas",
      "tipo_localidad": "neighbourhood",
      "latitud": 13.0821444,
      "longitud": -85.999786,
      "departamento": "Jinotega (Departamento)"
    },
    {
      "osm_id": "node/5810748816",
      "nombre": "Barrio San Luís",
      "tipo_localidad": "neighbourhood",
      "latitud": 13.1019733,
      "longitud": -86.005043,
      "departamento": "Jinotega (Departamento)"
    },
    {
      "osm_id": "node/5810748817",
      "nombre": "Carlos Fonseca II Etapa",
      "tipo_localidad": "neighbourhood",
      "latitud": 13.0710015,
      "longitud": -85.9975678,
      "departamento": "Jinotega (Departamento)"
    },
    {
      "osm_id": "node/5823779901",
      "nombre": "Jinotega",
      "tipo_localidad": "city",
      "latitud": 13.0920172,
      "longitud": -86.0031803,
      "departamento": "Jinotega (Departamento)"
    },
    {
      "osm_id": "node/5854422704",
      "nombre": "Apanás",
      "tipo_localidad": "village",
      "latitud": 13.1380936,
      "longitud": -86.0044986,
      "departamento": "Jinotega (Departamento)"
    },
    {
      "osm_id": "node/5897113717",
      "nombre": "San Gabriel",
      "tipo_localidad": "village",
      "latitud": 13.1691987,
      "longitud": -86.0658112,
      "departamento": "Jinotega (Departamento)"
    },
    {
      "osm_id": "node/5897119786",
      "nombre": "Boca del Monte",
      "tipo_localidad": "neighbourhood",
      "latitud": 13.1124876,
      "longitud": -86.006159,
      "departamento": "Jinotega (Departamento)"
    },
    {
      "osm_id": "node/5897119787",
      "nombre": "El Rastro",
      "tipo_localidad": "neighbourhood",
      "latitud": 13.1042638,
      "longitud": -86.0035947,
      "departamento": "Jinotega (Departamento)"
    },
    {
      "osm_id": "node/5897207941",
      "nombre": "Valerio",
      "tipo_localidad": "village",
      "latitud": 13.1717684,
      "longitud": -86.169846,
      "departamento": "Jinotega (Departamento)"
    },
    {
      "osm_id": "node/5905259874",
      "nombre": "Barrio Francisco Zeledón",
      "tipo_localidad": "neighbourhood",
      "latitud": 13.0972993,
      "longitud": -86.0030941,
      "departamento": "Jinotega (Departamento)"
    },
    {
      "osm_id": "node/5905259875",
      "nombre": "Barrio Alejandro Ramos",
      "tipo_localidad": "neighbourhood",
      "latitud": 13.0963248,
      "longitud": -86.0021807,
      "departamento": "Jinotega (Departamento)"
    },
    {
      "osm_id": "node/5905259876",
      "nombre": "Barrio Moisés López",
      "tipo_localidad": "neighbourhood",
      "latitud": 13.0927222,
      "longitud": -86.0013694,
      "departamento": "Jinotega (Departamento)"
    },
    {
      "osm_id": "node/5905259877",
      "nombre": "Barrio Alfredo Alegría",
      "tipo_localidad": "neighbourhood",
      "latitud": 13.0914865,
      "longitud": -85.9980461,
      "departamento": "Jinotega (Departamento)"
    },
    {
      "osm_id": "node/5912156897",
      "nombre": "Villa Valencia II Etapa",
      "tipo_localidad": "neighbourhood",
      "latitud": 13.1048052,
      "longitud": -85.9991009,
      "departamento": "Jinotega (Departamento)"
    },
    {
      "osm_id": "node/5912156898",
      "nombre": "Barrio Carlos Rizo II Etapa",
      "tipo_localidad": "neighbourhood",
      "latitud": 13.1005888,
      "longitud": -85.9952975,
      "departamento": "Jinotega (Departamento)"
    },
    {
      "osm_id": "node/5912156899",
      "nombre": "Villa La Cruz II Etapa",
      "tipo_localidad": "neighbourhood",
      "latitud": 13.0966267,
      "longitud": -86.0072261,
      "departamento": "Jinotega (Departamento)"
    },
    {
      "osm_id": "node/5912156901",
      "nombre": "Barrio Rosendo Chavarría",
      "tipo_localidad": "neighbourhood",
      "latitud": 13.094743,
      "longitud": -86.0049438,
      "departamento": "Jinotega (Departamento)"
    },
    {
      "osm_id": "node/5912156902",
      "nombre": "Palmira",
      "tipo_localidad": "neighbourhood",
      "latitud": 13.0827437,
      "longitud": -85.9925653,
      "departamento": "Jinotega (Departamento)"
    },
    {
      "osm_id": "node/5912156903",
      "nombre": "Barrio Róger Hamguien I Etapa",
      "tipo_localidad": "neighbourhood",
      "latitud": 13.0839077,
      "longitud": -85.9948531,
      "departamento": "Jinotega (Departamento)"
    },
    {
      "osm_id": "node/5912156904",
      "nombre": "Villa El Carmen",
      "tipo_localidad": "neighbourhood",
      "latitud": 13.0786837,
      "longitud": -85.9995497,
      "departamento": "Jinotega (Departamento)"
    },
    {
      "osm_id": "node/5912156905",
      "nombre": "Barrio Odorico D'Andrea",
      "tipo_localidad": "neighbourhood",
      "latitud": 13.0776858,
      "longitud": -86.0017223,
      "departamento": "Jinotega (Departamento)"
    },
    {
      "osm_id": "node/5912156906",
      "nombre": "Carlos Fonseca I Etapa",
      "tipo_localidad": "neighbourhood",
      "latitud": 13.0721677,
      "longitud": -85.9954353,
      "departamento": "Jinotega (Departamento)"
    },
    {
      "osm_id": "node/5938504076",
      "nombre": "El Hatillo",
      "tipo_localidad": "hamlet",
      "latitud": 13.0229793,
      "longitud": -85.9764644,
      "departamento": "Jinotega (Departamento)"
    },
    {
      "osm_id": "node/5938519804",
      "nombre": "Abisinia",
      "tipo_localidad": "village",
      "latitud": 13.29799,
      "longitud": -85.7814518,
      "departamento": "Jinotega (Departamento)"
    },
    {
      "osm_id": "node/5938564538",
      "nombre": "La Unión",
      "tipo_localidad": "hamlet",
      "latitud": 13.4891885,
      "longitud": -85.5926483,
      "departamento": "Jinotega (Departamento)"
    },
    {
      "osm_id": "node/5938564548",
      "nombre": "San Miguel de Kilambé",
      "tipo_localidad": "village",
      "latitud": 13.5284936,
      "longitud": -85.6306177,
      "departamento": "Jinotega (Departamento)"
    },
    {
      "osm_id": "node/5939374855",
      "nombre": "Luis Alfonso Hernández o La Pita del Carmen",
      "tipo_localidad": "village",
      "latitud": 13.3826739,
      "longitud": -85.7621667,
      "departamento": "Jinotega (Departamento)"
    },
    {
      "osm_id": "node/5940083492",
      "nombre": "Santa Inés",
      "tipo_localidad": "hamlet",
      "latitud": 13.0422269,
      "longitud": -85.9575647,
      "departamento": "Jinotega (Departamento)"
    },
    {
      "osm_id": "node/5940083493",
      "nombre": "Las Pilas",
      "tipo_localidad": "hamlet",
      "latitud": 13.0457021,
      "longitud": -85.9637579,
      "departamento": "Jinotega (Departamento)"
    },
    {
      "osm_id": "node/5940083494",
      "nombre": "Santa Lastenia",
      "tipo_localidad": "hamlet",
      "latitud": 13.0478839,
      "longitud": -85.9693717,
      "departamento": "Jinotega (Departamento)"
    },
    {
      "osm_id": "node/5947251419",
      "nombre": "Santa Clara",
      "tipo_localidad": "village",
      "latitud": 13.129044,
      "longitud": -85.9705989,
      "departamento": "Jinotega (Departamento)"
    },
    {
      "osm_id": "node/5947251420",
      "nombre": "Los Cipreses",
      "tipo_localidad": "village",
      "latitud": 13.1461161,
      "longitud": -85.9594946,
      "departamento": "Jinotega (Departamento)"
    },
    {
      "osm_id": "node/5947251422",
      "nombre": "Los Robles",
      "tipo_localidad": "hamlet",
      "latitud": 13.1479652,
      "longitud": -85.9374038,
      "departamento": "Jinotega (Departamento)"
    },
    {
      "osm_id": "node/5947251429",
      "nombre": "Sasle #1",
      "tipo_localidad": "hamlet",
      "latitud": 13.1882165,
      "longitud": -86.044188,
      "departamento": "Jinotega (Departamento)"
    },
    {
      "osm_id": "node/5947251430",
      "nombre": "Yucapuca",
      "tipo_localidad": "hamlet",
      "latitud": 13.1734927,
      "longitud": -86.0206919,
      "departamento": "Jinotega (Departamento)"
    },
    {
      "osm_id": "node/5947251433",
      "nombre": "Valle El Chilamate",
      "tipo_localidad": "hamlet",
      "latitud": 13.1625705,
      "longitud": -85.9934943,
      "departamento": "Jinotega (Departamento)"
    },
    {
      "osm_id": "node/5947251434",
      "nombre": "Saraguasca",
      "tipo_localidad": "hamlet",
      "latitud": 13.142471,
      "longitud": -86.0696824,
      "departamento": "Jinotega (Departamento)"
    },
    {
      "osm_id": "node/5947251436",
      "nombre": "El Sitio Viejo",
      "tipo_localidad": "hamlet",
      "latitud": 13.0208296,
      "longitud": -85.9505145,
      "departamento": "Jinotega (Departamento)"
    },
    {
      "osm_id": "node/5947251443",
      "nombre": "Santa Enriqueta",
      "tipo_localidad": "hamlet",
      "latitud": 13.0719734,
      "longitud": -85.9210639,
      "departamento": "Jinotega (Departamento)"
    },
    {
      "osm_id": "node/5947251444",
      "nombre": "La Parranda",
      "tipo_localidad": "village",
      "latitud": 13.0848225,
      "longitud": -85.8962695,
      "departamento": "Jinotega (Departamento)"
    },
    {
      "osm_id": "node/5947251447",
      "nombre": "Palo Blanco",
      "tipo_localidad": "hamlet",
      "latitud": 13.1067669,
      "longitud": -85.9299582,
      "departamento": "Jinotega (Departamento)"
    },
    {
      "osm_id": "node/5947251448",
      "nombre": "La Laguna",
      "tipo_localidad": "hamlet",
      "latitud": 13.1160354,
      "longitud": -85.926203,
      "departamento": "Jinotega (Departamento)"
    },
    {
      "osm_id": "node/5947251449",
      "nombre": "La Sultana",
      "tipo_localidad": "hamlet",
      "latitud": 13.1026081,
      "longitud": -85.9213106,
      "departamento": "Jinotega (Departamento)"
    },
    {
      "osm_id": "node/5947251450",
      "nombre": "Las Camelias",
      "tipo_localidad": "hamlet",
      "latitud": 13.1087053,
      "longitud": -85.9093131,
      "departamento": "Jinotega (Departamento)"
    },
    {
      "osm_id": "node/5947365721",
      "nombre": "Sisle #2",
      "tipo_localidad": "hamlet",
      "latitud": 13.1762975,
      "longitud": -86.0099415,
      "departamento": "Jinotega (Departamento)"
    },
    {
      "osm_id": "node/5947365722",
      "nombre": "Las Cureñas",
      "tipo_localidad": "hamlet",
      "latitud": 13.1526406,
      "longitud": -86.0717933,
      "departamento": "Jinotega (Departamento)"
    },
    {
      "osm_id": "node/5947597670",
      "nombre": "Santa Carmela",
      "tipo_localidad": "hamlet",
      "latitud": 13.0596855,
      "longitud": -85.9584458,
      "departamento": "Jinotega (Departamento)"
    },
    {
      "osm_id": "node/5947709028",
      "nombre": "La Palestina",
      "tipo_localidad": "hamlet",
      "latitud": 13.0750617,
      "longitud": -85.8976106,
      "departamento": "Jinotega (Departamento)"
    },
    {
      "osm_id": "node/5947759030",
      "nombre": "La Bastilla",
      "tipo_localidad": "hamlet",
      "latitud": 13.1461265,
      "longitud": -85.8928256,
      "departamento": "Jinotega (Departamento)"
    },
    {
      "osm_id": "node/5947877301",
      "nombre": "El Dorado",
      "tipo_localidad": "village",
      "latitud": 13.2472859,
      "longitud": -85.8562564,
      "departamento": "Jinotega (Departamento)"
    },
    {
      "osm_id": "node/5947877302",
      "nombre": "La Esperanza",
      "tipo_localidad": "hamlet",
      "latitud": 13.2362653,
      "longitud": -85.8828558,
      "departamento": "Jinotega (Departamento)"
    },
    {
      "osm_id": "node/5947877303",
      "nombre": "Asturias",
      "tipo_localidad": "village",
      "latitud": 13.2428423,
      "longitud": -85.8962052,
      "departamento": "Jinotega (Departamento)"
    },
    {
      "osm_id": "node/5947877304",
      "nombre": "Los Potrerillos",
      "tipo_localidad": "hamlet",
      "latitud": 13.2222467,
      "longitud": -85.9002928,
      "departamento": "Jinotega (Departamento)"
    },
    {
      "osm_id": "node/5947877305",
      "nombre": "San Esteban",
      "tipo_localidad": "hamlet",
      "latitud": 13.207222,
      "longitud": -85.9143744,
      "departamento": "Jinotega (Departamento)"
    },
    {
      "osm_id": "node/5947877306",
      "nombre": "Cuyalí",
      "tipo_localidad": "hamlet",
      "latitud": 13.1810709,
      "longitud": -85.9110586,
      "departamento": "Jinotega (Departamento)"
    },
    {
      "osm_id": "node/5947909738",
      "nombre": "Boniche Abajo",
      "tipo_localidad": "hamlet",
      "latitud": 13.2455102,
      "longitud": -86.1482562,
      "departamento": "Jinotega (Departamento)"
    },
    {
      "osm_id": "node/5954721400",
      "nombre": "Santiago del Coyolito",
      "tipo_localidad": "village",
      "latitud": 13.138866,
      "longitud": -86.1783298,
      "departamento": "Jinotega (Departamento)"
    },
    {
      "osm_id": "node/5954721401",
      "nombre": "San Vicente del Coyolito",
      "tipo_localidad": "hamlet",
      "latitud": 13.1411135,
      "longitud": -86.1741376,
      "departamento": "Jinotega (Departamento)"
    },
    {
      "osm_id": "node/5954721402",
      "nombre": "Colón Arriba",
      "tipo_localidad": "hamlet",
      "latitud": 13.1262897,
      "longitud": -86.1765773,
      "departamento": "Jinotega (Departamento)"
    },
    {
      "osm_id": "node/5954721403",
      "nombre": "Namanjí",
      "tipo_localidad": "hamlet",
      "latitud": 13.1237773,
      "longitud": -86.1496598,
      "departamento": "Jinotega (Departamento)"
    },
    {
      "osm_id": "node/5954799976",
      "nombre": "Colonia Guadalupe",
      "tipo_localidad": "neighbourhood",
      "latitud": 13.2132011,
      "longitud": -86.1098462,
      "departamento": "Jinotega (Departamento)"
    },
    {
      "osm_id": "node/5954799977",
      "nombre": "Barrio Francisco Zeledón",
      "tipo_localidad": "neighbourhood",
      "latitud": 13.2160316,
      "longitud": -86.1098247,
      "departamento": "Jinotega (Departamento)"
    },
    {
      "osm_id": "node/5954799978",
      "nombre": "Barrio Orlando Rivera",
      "tipo_localidad": "neighbourhood",
      "latitud": 13.21717,
      "longitud": -86.1103612,
      "departamento": "Jinotega (Departamento)"
    },
    {
      "osm_id": "node/5955991946",
      "nombre": "Santa Rita",
      "tipo_localidad": "hamlet",
      "latitud": 13.242412,
      "longitud": -85.8407143,
      "departamento": "Jinotega (Departamento)"
    },
    {
      "osm_id": "node/5960380485",
      "nombre": "Lomas Alta Abajo",
      "tipo_localidad": "village",
      "latitud": 13.2898559,
      "longitud": -85.9465254,
      "departamento": "Jinotega (Departamento)"
    },
    {
      "osm_id": "node/5970157637",
      "nombre": "La Quiata",
      "tipo_localidad": "hamlet",
      "latitud": 13.306013,
      "longitud": -86.2153269,
      "departamento": "Jinotega (Departamento)"
    },
    {
      "osm_id": "node/5984186567",
      "nombre": "Esperanza de Kilambé",
      "tipo_localidad": "hamlet",
      "latitud": 14.2865064,
      "longitud": -85.1425981,
      "departamento": "Jinotega (Departamento)"
    },
    {
      "osm_id": "node/5985140594",
      "nombre": "Sisle #1",
      "tipo_localidad": "hamlet",
      "latitud": 13.1924849,
      "longitud": -86.030345,
      "departamento": "Jinotega (Departamento)"
    },
    {
      "osm_id": "node/5989004532",
      "nombre": "Villa de la Rivera",
      "tipo_localidad": "neighbourhood",
      "latitud": 13.0888793,
      "longitud": -86.0056029,
      "departamento": "Jinotega (Departamento)"
    },
    {
      "osm_id": "node/5989004533",
      "nombre": "Cayasiva",
      "tipo_localidad": "neighbourhood",
      "latitud": 13.1020528,
      "longitud": -86.0011469,
      "departamento": "Jinotega (Departamento)"
    },
    {
      "osm_id": "node/5989004534",
      "nombre": "Barrio Piedra Grande",
      "tipo_localidad": "neighbourhood",
      "latitud": 13.0833615,
      "longitud": -86.0053722,
      "departamento": "Jinotega (Departamento)"
    },
    {
      "osm_id": "node/5989004535",
      "nombre": "Villa Libertad",
      "tipo_localidad": "neighbourhood",
      "latitud": 13.084114,
      "longitud": -85.9996913,
      "departamento": "Jinotega (Departamento)"
    },
    {
      "osm_id": "node/5989004536",
      "nombre": "Lina Herrera",
      "tipo_localidad": "neighbourhood",
      "latitud": 13.0658305,
      "longitud": -86.0004584,
      "departamento": "Jinotega (Departamento)"
    },
    {
      "osm_id": "node/5991623025",
      "nombre": "Ermita de San Antonio de Sisle",
      "tipo_localidad": "hamlet",
      "latitud": 13.2072521,
      "longitud": -86.0109044,
      "departamento": "Jinotega (Departamento)"
    },
    {
      "osm_id": "node/5991701650",
      "nombre": "Ocuslí",
      "tipo_localidad": "hamlet",
      "latitud": 13.0843978,
      "longitud": -86.0862048,
      "departamento": "Jinotega (Departamento)"
    },
    {
      "osm_id": "node/5991701651",
      "nombre": "La Loma del Nance",
      "tipo_localidad": "hamlet",
      "latitud": 13.0784411,
      "longitud": -86.1088426,
      "departamento": "Jinotega (Departamento)"
    },
    {
      "osm_id": "node/5991701653",
      "nombre": "Santa Bárbara",
      "tipo_localidad": "hamlet",
      "latitud": 13.1007886,
      "longitud": -86.101488,
      "departamento": "Jinotega (Departamento)"
    },
    {
      "osm_id": "node/5991701654",
      "nombre": "El Chagüite",
      "tipo_localidad": "hamlet",
      "latitud": 13.1062364,
      "longitud": -86.1276245,
      "departamento": "Jinotega (Departamento)"
    },
    {
      "osm_id": "node/5991701655",
      "nombre": "El Ojo de Agua",
      "tipo_localidad": "hamlet",
      "latitud": 13.1059402,
      "longitud": -86.1176134,
      "departamento": "Jinotega (Departamento)"
    },
    {
      "osm_id": "node/5991701657",
      "nombre": "Los Cerritos",
      "tipo_localidad": "hamlet",
      "latitud": 13.1336085,
      "longitud": -86.1256868,
      "departamento": "Jinotega (Departamento)"
    },
    {
      "osm_id": "node/5991701660",
      "nombre": "San Marcos Abajo",
      "tipo_localidad": "neighbourhood",
      "latitud": 13.1319002,
      "longitud": -86.104948,
      "departamento": "Jinotega (Departamento)"
    },
    {
      "osm_id": "node/5991701677",
      "nombre": "Las Pilas",
      "tipo_localidad": "hamlet",
      "latitud": 13.1399401,
      "longitud": -86.0578752,
      "departamento": "Jinotega (Departamento)"
    },
    {
      "osm_id": "node/5991701907",
      "nombre": "Palo de Piedra",
      "tipo_localidad": "hamlet",
      "latitud": 13.1405174,
      "longitud": -86.0415513,
      "departamento": "Jinotega (Departamento)"
    },
    {
      "osm_id": "node/5991701908",
      "nombre": "Santa Teresita",
      "tipo_localidad": "hamlet",
      "latitud": 13.1427479,
      "longitud": -86.0483159,
      "departamento": "Jinotega (Departamento)"
    },
    {
      "osm_id": "node/5991701909",
      "nombre": "San Ramón",
      "tipo_localidad": "hamlet",
      "latitud": 13.1475539,
      "longitud": -86.0556866,
      "departamento": "Jinotega (Departamento)"
    },
    {
      "osm_id": "node/5991701912",
      "nombre": "Sábana de Enmedio",
      "tipo_localidad": "hamlet",
      "latitud": 13.1753221,
      "longitud": -86.0852016,
      "departamento": "Jinotega (Departamento)"
    },
    {
      "osm_id": "node/5991701914",
      "nombre": "La Tejera",
      "tipo_localidad": "hamlet",
      "latitud": 13.1964542,
      "longitud": -86.1180747,
      "departamento": "Jinotega (Departamento)"
    },
    {
      "osm_id": "node/5991701915",
      "nombre": "El Limón",
      "tipo_localidad": "hamlet",
      "latitud": 13.1209215,
      "longitud": -86.0328127,
      "departamento": "Jinotega (Departamento)"
    },
    {
      "osm_id": "node/5991701937",
      "nombre": "Las Mesitas",
      "tipo_localidad": "village",
      "latitud": 13.0831151,
      "longitud": -86.0391106,
      "departamento": "Jinotega (Departamento)"
    },
    {
      "osm_id": "node/5991701938",
      "nombre": "La Cal",
      "tipo_localidad": "hamlet",
      "latitud": 13.0702477,
      "longitud": -86.0339929,
      "departamento": "Jinotega (Departamento)"
    },
    {
      "osm_id": "node/5991701939",
      "nombre": "El Jobo",
      "tipo_localidad": "hamlet",
      "latitud": 13.0564679,
      "longitud": -86.0388396,
      "departamento": "Jinotega (Departamento)"
    },
    {
      "osm_id": "node/5991701940",
      "nombre": "Los Chagüites",
      "tipo_localidad": "village",
      "latitud": 13.0527079,
      "longitud": -86.0337514,
      "departamento": "Jinotega (Departamento)"
    },
    {
      "osm_id": "node/5991701941",
      "nombre": "El Coral",
      "tipo_localidad": "hamlet",
      "latitud": 13.0601337,
      "longitud": -86.0492707,
      "departamento": "Jinotega (Departamento)"
    },
    {
      "osm_id": "node/5991701942",
      "nombre": "Yagualica",
      "tipo_localidad": "hamlet",
      "latitud": 13.0491804,
      "longitud": -86.0543079,
      "departamento": "Jinotega (Departamento)"
    },
    {
      "osm_id": "node/5991701943",
      "nombre": "El Porvenir",
      "tipo_localidad": "hamlet",
      "latitud": 13.0253911,
      "longitud": -86.0013128,
      "departamento": "Jinotega (Departamento)"
    },
    {
      "osm_id": "node/5991701944",
      "nombre": "El Tanque",
      "tipo_localidad": "hamlet",
      "latitud": 13.016297,
      "longitud": -85.9844042,
      "departamento": "Jinotega (Departamento)"
    },
    {
      "osm_id": "node/5991701946",
      "nombre": "El Horno",
      "tipo_localidad": "hamlet",
      "latitud": 13.0449161,
      "longitud": -85.9806491,
      "departamento": "Jinotega (Departamento)"
    },
    {
      "osm_id": "node/5993765395",
      "nombre": "Ignacio Ramón Olivas",
      "tipo_localidad": "village",
      "latitud": 13.0473244,
      "longitud": -85.937378,
      "departamento": "Jinotega (Departamento)"
    },
    {
      "osm_id": "node/5996459783",
      "nombre": "La Paz del Tuma",
      "tipo_localidad": "village",
      "latitud": 13.2069608,
      "longitud": -85.8356623,
      "departamento": "Jinotega (Departamento)"
    },
    {
      "osm_id": "node/5996461285",
      "nombre": "Las Morenas",
      "tipo_localidad": "hamlet",
      "latitud": 13.2174109,
      "longitud": -85.8384411,
      "departamento": "Jinotega (Departamento)"
    },
    {
      "osm_id": "node/5996461286",
      "nombre": "Monte Cristo",
      "tipo_localidad": "hamlet",
      "latitud": 13.2179045,
      "longitud": -85.8148243,
      "departamento": "Jinotega (Departamento)"
    },
    {
      "osm_id": "node/5996461287",
      "nombre": "La Sorpresa",
      "tipo_localidad": "village",
      "latitud": 13.2689079,
      "longitud": -85.7977869,
      "departamento": "Jinotega (Departamento)"
    },
    {
      "osm_id": "node/5996461289",
      "nombre": "El Progreso",
      "tipo_localidad": "hamlet",
      "latitud": 13.2895386,
      "longitud": -85.7863688,
      "departamento": "Jinotega (Departamento)"
    },
    {
      "osm_id": "node/5996461290",
      "nombre": "El Laberinto",
      "tipo_localidad": "hamlet",
      "latitud": 13.2841116,
      "longitud": -85.7979183,
      "departamento": "Jinotega (Departamento)"
    },
    {
      "osm_id": "node/5996461291",
      "nombre": "Santa Isabel",
      "tipo_localidad": "hamlet",
      "latitud": 13.1904518,
      "longitud": -85.8159642,
      "departamento": "Jinotega (Departamento)"
    },
    {
      "osm_id": "node/5996461292",
      "nombre": "Ernesto Acuña",
      "tipo_localidad": "hamlet",
      "latitud": 13.2025817,
      "longitud": -85.7567438,
      "departamento": "Jinotega (Departamento)"
    },
    {
      "osm_id": "node/5996461294",
      "nombre": "La Viola",
      "tipo_localidad": "hamlet",
      "latitud": 13.2134889,
      "longitud": -85.7448696,
      "departamento": "Jinotega (Departamento)"
    },
    {
      "osm_id": "node/5996461297",
      "nombre": "San Luis",
      "tipo_localidad": "hamlet",
      "latitud": 13.2253436,
      "longitud": -85.7401434,
      "departamento": "Jinotega (Departamento)"
    },
    {
      "osm_id": "node/5996461298",
      "nombre": "Las Delicias",
      "tipo_localidad": "hamlet",
      "latitud": 13.2307901,
      "longitud": -85.73965,
      "departamento": "Jinotega (Departamento)"
    },
    {
      "osm_id": "node/5996461299",
      "nombre": "El Escambray",
      "tipo_localidad": "village",
      "latitud": 13.2395682,
      "longitud": -85.7562207,
      "departamento": "Jinotega (Departamento)"
    },
    {
      "osm_id": "node/5996461300",
      "nombre": "El Sardinal",
      "tipo_localidad": "village",
      "latitud": 13.2516147,
      "longitud": -85.7528733,
      "departamento": "Jinotega (Departamento)"
    },
    {
      "osm_id": "node/5996487944",
      "nombre": "Santa Teresita",
      "tipo_localidad": "hamlet",
      "latitud": 13.2693987,
      "longitud": -85.7871573,
      "departamento": "Jinotega (Departamento)"
    },
    {
      "osm_id": "node/5996487945",
      "nombre": "Sonora",
      "tipo_localidad": "village",
      "latitud": 13.2495809,
      "longitud": -85.733961,
      "departamento": "Jinotega (Departamento)"
    },
    {
      "osm_id": "node/5996487947",
      "nombre": "América",
      "tipo_localidad": "hamlet",
      "latitud": 13.2119901,
      "longitud": -85.7880961,
      "departamento": "Jinotega (Departamento)"
    },
    {
      "osm_id": "node/5996496971",
      "nombre": "La Unión",
      "tipo_localidad": "village",
      "latitud": 13.1781359,
      "longitud": -85.8329373,
      "departamento": "Jinotega (Departamento)"
    },
    {
      "osm_id": "node/5996496973",
      "nombre": "Santa Gertrudis",
      "tipo_localidad": "hamlet",
      "latitud": 13.1914416,
      "longitud": -85.8623932,
      "departamento": "Jinotega (Departamento)"
    },
    {
      "osm_id": "node/5996514447",
      "nombre": "Jesús María",
      "tipo_localidad": "hamlet",
      "latitud": 13.1604393,
      "longitud": -85.8487623,
      "departamento": "Jinotega (Departamento)"
    },
    {
      "osm_id": "node/5996514448",
      "nombre": "La Trampa",
      "tipo_localidad": "hamlet",
      "latitud": 13.1470249,
      "longitud": -85.8517234,
      "departamento": "Jinotega (Departamento)"
    },
    {
      "osm_id": "node/5996514449",
      "nombre": "La Colombina",
      "tipo_localidad": "hamlet",
      "latitud": 13.149992,
      "longitud": -85.8358662,
      "departamento": "Jinotega (Departamento)"
    },
    {
      "osm_id": "node/5996514450",
      "nombre": "Corinto Finca",
      "tipo_localidad": "hamlet",
      "latitud": 13.1730277,
      "longitud": -85.8834915,
      "departamento": "Jinotega (Departamento)"
    },
    {
      "osm_id": "node/5996514451",
      "nombre": "San Pedro de Buculmay",
      "tipo_localidad": "hamlet",
      "latitud": 13.1823301,
      "longitud": -85.8994936,
      "departamento": "Jinotega (Departamento)"
    },
    {
      "osm_id": "node/5996529543",
      "nombre": "Las Lajas",
      "tipo_localidad": "hamlet",
      "latitud": 13.1178116,
      "longitud": -85.8518307,
      "departamento": "Jinotega (Departamento)"
    },
    {
      "osm_id": "node/5996529544",
      "nombre": "Zaragosa",
      "tipo_localidad": "hamlet",
      "latitud": 13.1075088,
      "longitud": -85.834729,
      "departamento": "Jinotega (Departamento)"
    },
    {
      "osm_id": "node/5996543402",
      "nombre": "Jigüina",
      "tipo_localidad": "village",
      "latitud": 13.1542781,
      "longitud": -85.9254922,
      "departamento": "Jinotega (Departamento)"
    },
    {
      "osm_id": "node/5996543403",
      "nombre": "Pelón",
      "tipo_localidad": "hamlet",
      "latitud": 13.1460011,
      "longitud": -85.9134733,
      "departamento": "Jinotega (Departamento)"
    },
    {
      "osm_id": "node/5996543405",
      "nombre": "Apaquila",
      "tipo_localidad": "hamlet",
      "latitud": 13.1306111,
      "longitud": -85.9355425,
      "departamento": "Jinotega (Departamento)"
    },
    {
      "osm_id": "node/5996543406",
      "nombre": "Valle El Salto",
      "tipo_localidad": "village",
      "latitud": 13.1262567,
      "longitud": -85.9041177,
      "departamento": "Jinotega (Departamento)"
    },
    {
      "osm_id": "node/6003133709",
      "nombre": "La Chichigua",
      "tipo_localidad": "village",
      "latitud": 13.2286434,
      "longitud": -86.1684157,
      "departamento": "Jinotega (Departamento)"
    },
    {
      "osm_id": "node/6024077336",
      "nombre": "Kayayawás",
      "tipo_localidad": "village",
      "latitud": 14.1790029,
      "longitud": -85.2064574,
      "departamento": "Jinotega (Departamento)"
    },
    {
      "osm_id": "node/6024406315",
      "nombre": "Cacique Sasle",
      "tipo_localidad": "village",
      "latitud": 13.1284681,
      "longitud": -86.0348726,
      "departamento": "Jinotega (Departamento)"
    },
    {
      "osm_id": "node/6024447760",
      "nombre": "El Aserrio",
      "tipo_localidad": "hamlet",
      "latitud": 13.3584814,
      "longitud": -85.9346768,
      "departamento": "Jinotega (Departamento)"
    },
    {
      "osm_id": "node/6024447761",
      "nombre": "Guale #1",
      "tipo_localidad": "village",
      "latitud": 13.3189317,
      "longitud": -85.9374663,
      "departamento": "Jinotega (Departamento)"
    },
    {
      "osm_id": "node/6024447763",
      "nombre": "El Charcón #2",
      "tipo_localidad": "hamlet",
      "latitud": 13.3565815,
      "longitud": -85.950534,
      "departamento": "Jinotega (Departamento)"
    },
    {
      "osm_id": "node/6024447765",
      "nombre": "Cuatro Esquinas",
      "tipo_localidad": "hamlet",
      "latitud": 13.3436373,
      "longitud": -85.9676358,
      "departamento": "Jinotega (Departamento)"
    },
    {
      "osm_id": "node/6024447766",
      "nombre": "Penquillas",
      "tipo_localidad": "hamlet",
      "latitud": 13.3381514,
      "longitud": -85.9455774,
      "departamento": "Jinotega (Departamento)"
    },
    {
      "osm_id": "node/6024447768",
      "nombre": "El Malecón",
      "tipo_localidad": "village",
      "latitud": 13.3728026,
      "longitud": -85.9232185,
      "departamento": "Jinotega (Departamento)"
    },
    {
      "osm_id": "node/6024447769",
      "nombre": "El Charcón #1",
      "tipo_localidad": "hamlet",
      "latitud": 13.3769151,
      "longitud": -85.9429595,
      "departamento": "Jinotega (Departamento)"
    },
    {
      "osm_id": "node/6024447770",
      "nombre": "Los Limones",
      "tipo_localidad": "hamlet",
      "latitud": 13.341967,
      "longitud": -85.8939716,
      "departamento": "Jinotega (Departamento)"
    },
    {
      "osm_id": "node/6024447771",
      "nombre": "Lomas Alta Arriba",
      "tipo_localidad": "hamlet",
      "latitud": 13.2954399,
      "longitud": -85.9446814,
      "departamento": "Jinotega (Departamento)"
    },
    {
      "osm_id": "node/6024447774",
      "nombre": "Los Chagüitones",
      "tipo_localidad": "hamlet",
      "latitud": 13.299512,
      "longitud": -85.9071787,
      "departamento": "Jinotega (Departamento)"
    },
    {
      "osm_id": "node/6024447776",
      "nombre": "Monterrey",
      "tipo_localidad": "village",
      "latitud": 13.2707816,
      "longitud": -85.8822557,
      "departamento": "Jinotega (Departamento)"
    },
    {
      "osm_id": "node/6024447779",
      "nombre": "El Diamante",
      "tipo_localidad": "hamlet",
      "latitud": 13.2892691,
      "longitud": -85.9001192,
      "departamento": "Jinotega (Departamento)"
    },
    {
      "osm_id": "node/6024447780",
      "nombre": "El Jilguero",
      "tipo_localidad": "hamlet",
      "latitud": 13.3193284,
      "longitud": -85.8940817,
      "departamento": "Jinotega (Departamento)"
    },
    {
      "osm_id": "node/6024447781",
      "nombre": "San Isidro",
      "tipo_localidad": "hamlet",
      "latitud": 13.2960769,
      "longitud": -85.8657869,
      "departamento": "Jinotega (Departamento)"
    },
    {
      "osm_id": "node/6024471628",
      "nombre": "El Ventarrón Nº1",
      "tipo_localidad": "hamlet",
      "latitud": 13.3322896,
      "longitud": -85.8663341,
      "departamento": "Jinotega (Departamento)"
    },
    {
      "osm_id": "node/6024471629",
      "nombre": "El Tropezón",
      "tipo_localidad": "hamlet",
      "latitud": 13.289953,
      "longitud": -85.8003732,
      "departamento": "Jinotega (Departamento)"
    },
    {
      "osm_id": "node/6024491593",
      "nombre": "Los Planes de Vilán",
      "tipo_localidad": "village",
      "latitud": 13.3926235,
      "longitud": -85.8509168,
      "departamento": "Jinotega (Departamento)"
    },
    {
      "osm_id": "node/6024491594",
      "nombre": "San José",
      "tipo_localidad": "hamlet",
      "latitud": 13.3417791,
      "longitud": -85.8251783,
      "departamento": "Jinotega (Departamento)"
    },
    {
      "osm_id": "node/6024491595",
      "nombre": "Guapinol #1",
      "tipo_localidad": "hamlet",
      "latitud": 13.3642329,
      "longitud": -85.8283326,
      "departamento": "Jinotega (Departamento)"
    },
    {
      "osm_id": "node/6024491596",
      "nombre": "Pavona Central",
      "tipo_localidad": "hamlet",
      "latitud": 13.3308072,
      "longitud": -85.770708,
      "departamento": "Jinotega (Departamento)"
    },
    {
      "osm_id": "node/6024491597",
      "nombre": "Santa Amalia",
      "tipo_localidad": "hamlet",
      "latitud": 13.3147764,
      "longitud": -85.8047399,
      "departamento": "Jinotega (Departamento)"
    },
    {
      "osm_id": "node/6024491600",
      "nombre": "La Pavona",
      "tipo_localidad": "hamlet",
      "latitud": 13.3576646,
      "longitud": -85.8028892,
      "departamento": "Jinotega (Departamento)"
    },
    {
      "osm_id": "node/6024491605",
      "nombre": "Aguas Calientes",
      "tipo_localidad": "hamlet",
      "latitud": 13.3983324,
      "longitud": -85.8241269,
      "departamento": "Jinotega (Departamento)"
    },
    {
      "osm_id": "node/6024491608",
      "nombre": "El Trebol",
      "tipo_localidad": "village",
      "latitud": 13.3712108,
      "longitud": -85.6866369,
      "departamento": "Jinotega (Departamento)"
    },
    {
      "osm_id": "node/6024491609",
      "nombre": "La Lima",
      "tipo_localidad": "hamlet",
      "latitud": 13.3643373,
      "longitud": -85.6983743,
      "departamento": "Jinotega (Departamento)"
    },
    {
      "osm_id": "node/6026255566",
      "nombre": "El Níspero",
      "tipo_localidad": "hamlet",
      "latitud": 13.301528,
      "longitud": -85.9688689,
      "departamento": "Jinotega (Departamento)"
    },
    {
      "osm_id": "node/6026255569",
      "nombre": "Países Bajos",
      "tipo_localidad": "hamlet",
      "latitud": 13.2035298,
      "longitud": -85.997751,
      "departamento": "Jinotega (Departamento)"
    },
    {
      "osm_id": "node/6026255570",
      "nombre": "El Jalacate",
      "tipo_localidad": "hamlet",
      "latitud": 13.2152909,
      "longitud": -85.9923598,
      "departamento": "Jinotega (Departamento)"
    },
    {
      "osm_id": "node/6026255574",
      "nombre": "El Sacramento",
      "tipo_localidad": "hamlet",
      "latitud": 13.2912565,
      "longitud": -85.9859278,
      "departamento": "Jinotega (Departamento)"
    },
    {
      "osm_id": "node/6026255575",
      "nombre": "Santa Martha",
      "tipo_localidad": "hamlet",
      "latitud": 13.3018204,
      "longitud": -85.9897258,
      "departamento": "Jinotega (Departamento)"
    },
    {
      "osm_id": "node/6026255578",
      "nombre": "Antioquía",
      "tipo_localidad": "hamlet",
      "latitud": 13.2844512,
      "longitud": -86.0039737,
      "departamento": "Jinotega (Departamento)"
    },
    {
      "osm_id": "node/6026255580",
      "nombre": "Santa Fé",
      "tipo_localidad": "hamlet",
      "latitud": 13.2746071,
      "longitud": -86.0471251,
      "departamento": "Jinotega (Departamento)"
    },
    {
      "osm_id": "node/6026258869",
      "nombre": "Vuelta El Horno",
      "tipo_localidad": "hamlet",
      "latitud": 13.2460852,
      "longitud": -86.0413959,
      "departamento": "Jinotega (Departamento)"
    },
    {
      "osm_id": "node/6026258872",
      "nombre": "El Aguacatal",
      "tipo_localidad": "hamlet",
      "latitud": 13.2288686,
      "longitud": -86.0627677,
      "departamento": "Jinotega (Departamento)"
    },
    {
      "osm_id": "node/6026313613",
      "nombre": "Canta Gallo",
      "tipo_localidad": "hamlet",
      "latitud": 13.2008145,
      "longitud": -86.1597785,
      "departamento": "Jinotega (Departamento)"
    },
    {
      "osm_id": "node/6026313614",
      "nombre": "El Quequisque",
      "tipo_localidad": "hamlet",
      "latitud": 13.2049315,
      "longitud": -86.1726053,
      "departamento": "Jinotega (Departamento)"
    },
    {
      "osm_id": "node/6026313615",
      "nombre": "Güiscanal",
      "tipo_localidad": "hamlet",
      "latitud": 13.2051096,
      "longitud": -86.182764,
      "departamento": "Jinotega (Departamento)"
    },
    {
      "osm_id": "node/6026313616",
      "nombre": "Los Calpules",
      "tipo_localidad": "hamlet",
      "latitud": 13.1941757,
      "longitud": -86.1563413,
      "departamento": "Jinotega (Departamento)"
    },
    {
      "osm_id": "node/6026313617",
      "nombre": "El Coyote",
      "tipo_localidad": "hamlet",
      "latitud": 13.2201392,
      "longitud": -86.1846645,
      "departamento": "Jinotega (Departamento)"
    },
    {
      "osm_id": "node/6026313618",
      "nombre": "El Salto",
      "tipo_localidad": "hamlet",
      "latitud": 13.2283275,
      "longitud": -86.1910803,
      "departamento": "Jinotega (Departamento)"
    },
    {
      "osm_id": "node/6026313619",
      "nombre": "La Colmena",
      "tipo_localidad": "hamlet",
      "latitud": 13.2497998,
      "longitud": -86.1945806,
      "departamento": "Jinotega (Departamento)"
    },
    {
      "osm_id": "node/6026313620",
      "nombre": "La Tuna",
      "tipo_localidad": "hamlet",
      "latitud": 13.2203898,
      "longitud": -86.2019165,
      "departamento": "Jinotega (Departamento)"
    },
    {
      "osm_id": "node/6026313621",
      "nombre": "Santa Ana",
      "tipo_localidad": "hamlet",
      "latitud": 13.2126608,
      "longitud": -86.2065728,
      "departamento": "Jinotega (Departamento)"
    },
    {
      "osm_id": "node/6026313622",
      "nombre": "Arenilla",
      "tipo_localidad": "hamlet",
      "latitud": 13.2167342,
      "longitud": -86.2136967,
      "departamento": "Jinotega (Departamento)"
    },
    {
      "osm_id": "node/6026313623",
      "nombre": "Los Zarzales",
      "tipo_localidad": "hamlet",
      "latitud": 13.2219356,
      "longitud": -86.2198551,
      "departamento": "Jinotega (Departamento)"
    },
    {
      "osm_id": "node/6026313624",
      "nombre": "La Pita",
      "tipo_localidad": "hamlet",
      "latitud": 13.198915,
      "longitud": -86.2120874,
      "departamento": "Jinotega (Departamento)"
    },
    {
      "osm_id": "node/6026322373",
      "nombre": "Las Quebradas",
      "tipo_localidad": "hamlet",
      "latitud": 13.1833091,
      "longitud": -86.2037564,
      "departamento": "Jinotega (Departamento)"
    },
    {
      "osm_id": "node/6026322376",
      "nombre": "La Guanábana",
      "tipo_localidad": "hamlet",
      "latitud": 13.1503077,
      "longitud": -86.1938323,
      "departamento": "Jinotega (Departamento)"
    },
    {
      "osm_id": "node/6026335550",
      "nombre": "Colón Abajo",
      "tipo_localidad": "hamlet",
      "latitud": 13.1171579,
      "longitud": -86.1518006,
      "departamento": "Jinotega (Departamento)"
    },
    {
      "osm_id": "node/6026335551",
      "nombre": "El Zapote Oriental",
      "tipo_localidad": "hamlet",
      "latitud": 13.1540269,
      "longitud": -86.1566783,
      "departamento": "Jinotega (Departamento)"
    },
    {
      "osm_id": "node/6026335552",
      "nombre": "La Rinconada",
      "tipo_localidad": "hamlet",
      "latitud": 13.1478002,
      "longitud": -86.144528,
      "departamento": "Jinotega (Departamento)"
    },
    {
      "osm_id": "node/6026335553",
      "nombre": "El Granadillo",
      "tipo_localidad": "hamlet",
      "latitud": 13.1438876,
      "longitud": -86.1405368,
      "departamento": "Jinotega (Departamento)"
    },
    {
      "osm_id": "node/6026335554",
      "nombre": "El Espino",
      "tipo_localidad": "village",
      "latitud": 13.1492028,
      "longitud": -86.1044585,
      "departamento": "Jinotega (Departamento)"
    },
    {
      "osm_id": "node/6026335555",
      "nombre": "Palcila",
      "tipo_localidad": "hamlet",
      "latitud": 13.1458595,
      "longitud": -86.1070199,
      "departamento": "Jinotega (Departamento)"
    },
    {
      "osm_id": "node/6028437637",
      "nombre": "El Chimborazo #2",
      "tipo_localidad": "hamlet",
      "latitud": 13.0724986,
      "longitud": -85.9354727,
      "departamento": "Jinotega (Departamento)"
    },
    {
      "osm_id": "node/6204822526",
      "nombre": "Max Senqui",
      "tipo_localidad": "neighbourhood",
      "latitud": 13.096479,
      "longitud": -85.9997921,
      "departamento": "Jinotega (Departamento)"
    },
    {
      "osm_id": "node/6210584734",
      "nombre": "Boniche Arriba",
      "tipo_localidad": "hamlet",
      "latitud": 13.2498167,
      "longitud": -86.156657,
      "departamento": "Jinotega (Departamento)"
    },
    {
      "osm_id": "node/6210584736",
      "nombre": "El Rodeíto",
      "tipo_localidad": "hamlet",
      "latitud": 13.3097078,
      "longitud": -86.2215583,
      "departamento": "Jinotega (Departamento)"
    },
    {
      "osm_id": "node/6210584737",
      "nombre": "La Vainilla",
      "tipo_localidad": "hamlet",
      "latitud": 13.314949,
      "longitud": -86.2280171,
      "departamento": "Jinotega (Departamento)"
    },
    {
      "osm_id": "node/6210584738",
      "nombre": "La Estación",
      "tipo_localidad": "neighbourhood",
      "latitud": 13.3244287,
      "longitud": -86.2422489,
      "departamento": "Jinotega (Departamento)"
    },
    {
      "osm_id": "node/6210612213",
      "nombre": "Las Vegas",
      "tipo_localidad": "hamlet",
      "latitud": 13.368132,
      "longitud": -86.1022376,
      "departamento": "Jinotega (Departamento)"
    },
    {
      "osm_id": "node/6210612214",
      "nombre": "La Chiripa",
      "tipo_localidad": "hamlet",
      "latitud": 13.3902179,
      "longitud": -86.0664354,
      "departamento": "Jinotega (Departamento)"
    },
    {
      "osm_id": "node/6237175194",
      "nombre": "Llano Grande",
      "tipo_localidad": "village",
      "latitud": 13.1333963,
      "longitud": -86.0059462,
      "departamento": "Jinotega (Departamento)"
    },
    {
      "osm_id": "node/6254653271",
      "nombre": "Plan de Grama",
      "tipo_localidad": "town",
      "latitud": 13.6546019,
      "longitud": -85.659899,
      "departamento": "Jinotega (Departamento)"
    },
    {
      "osm_id": "node/6254713723",
      "nombre": "Wanblán",
      "tipo_localidad": "village",
      "latitud": 13.8178887,
      "longitud": -85.6873995,
      "departamento": "Jinotega (Departamento)"
    },
    {
      "osm_id": "node/6260329220",
      "nombre": "Barrio Mauricio Altamirano",
      "tipo_localidad": "neighbourhood",
      "latitud": 13.091096,
      "longitud": -86.0041042,
      "departamento": "Jinotega (Departamento)"
    },
    {
      "osm_id": "node/6300218225",
      "nombre": "Lipululo",
      "tipo_localidad": "hamlet",
      "latitud": 13.1206736,
      "longitud": -85.9779607,
      "departamento": "Jinotega (Departamento)"
    },
    {
      "osm_id": "node/6340234818",
      "nombre": "El Cacao",
      "tipo_localidad": "village",
      "latitud": 13.1028186,
      "longitud": -86.0521441,
      "departamento": "Jinotega (Departamento)"
    },
    {
      "osm_id": "node/6419491998",
      "nombre": "Proyecto Los Maestros",
      "tipo_localidad": "neighbourhood",
      "latitud": 13.0996031,
      "longitud": -85.9973004,
      "departamento": "Jinotega (Departamento)"
    },
    {
      "osm_id": "node/6496265534",
      "nombre": "Amaka",
      "tipo_localidad": "village",
      "latitud": 14.2409869,
      "longitud": -85.1515361,
      "departamento": "Jinotega (Departamento)"
    },
    {
      "osm_id": "node/6496276748",
      "nombre": "Boca de Wina",
      "tipo_localidad": "village",
      "latitud": 14.0798261,
      "longitud": -85.277101,
      "departamento": "Jinotega (Departamento)"
    },
    {
      "osm_id": "node/6496298738",
      "nombre": "Oskiwuás",
      "tipo_localidad": "hamlet",
      "latitud": 13.563955,
      "longitud": -85.5126771,
      "departamento": "Jinotega (Departamento)"
    },
    {
      "osm_id": "node/6496298739",
      "nombre": "Uhkiwás",
      "tipo_localidad": "hamlet",
      "latitud": 13.5598457,
      "longitud": -85.507098,
      "departamento": "Jinotega (Departamento)"
    },
    {
      "osm_id": "node/6496299180",
      "nombre": "Lugar Tablazo Kalangsa",
      "tipo_localidad": "hamlet",
      "latitud": 13.9837538,
      "longitud": -85.3506794,
      "departamento": "Jinotega (Departamento)"
    },
    {
      "osm_id": "node/6496299181",
      "nombre": "Tunawalán",
      "tipo_localidad": "hamlet",
      "latitud": 13.9020949,
      "longitud": -85.3913351,
      "departamento": "Jinotega (Departamento)"
    },
    {
      "osm_id": "node/6496299182",
      "nombre": "San Donaldo",
      "tipo_localidad": "hamlet",
      "latitud": 13.8873081,
      "longitud": -85.3926506,
      "departamento": "Jinotega (Departamento)"
    },
    {
      "osm_id": "node/6496299183",
      "nombre": "San José de Bocay",
      "tipo_localidad": "hamlet",
      "latitud": 13.830559,
      "longitud": -85.3846361,
      "departamento": "Jinotega (Departamento)"
    },
    {
      "osm_id": "node/6496299184",
      "nombre": "Bocas de Tapal",
      "tipo_localidad": "hamlet",
      "latitud": 13.8341192,
      "longitud": -85.3731133,
      "departamento": "Jinotega (Departamento)"
    },
    {
      "osm_id": "node/6496300386",
      "nombre": "Luz de Bocay",
      "tipo_localidad": "village",
      "latitud": 13.6997719,
      "longitud": -85.4457023,
      "departamento": "Jinotega (Departamento)"
    },
    {
      "osm_id": "node/6496300388",
      "nombre": "Waulawás",
      "tipo_localidad": "hamlet",
      "latitud": 13.6684991,
      "longitud": -85.4628201,
      "departamento": "Jinotega (Departamento)"
    },
    {
      "osm_id": "node/6496300390",
      "nombre": "Santa Rosa",
      "tipo_localidad": "hamlet",
      "latitud": 13.6065769,
      "longitud": -85.5048021,
      "departamento": "Jinotega (Departamento)"
    },
    {
      "osm_id": "node/6496300391",
      "nombre": "Garrobo",
      "tipo_localidad": "hamlet",
      "latitud": 13.5795259,
      "longitud": -85.5166145,
      "departamento": "Jinotega (Departamento)"
    },
    {
      "osm_id": "node/6496367698",
      "nombre": "Barrio La Colonia",
      "tipo_localidad": "neighbourhood",
      "latitud": 13.5366488,
      "longitud": -85.543619,
      "departamento": "Jinotega (Departamento)"
    },
    {
      "osm_id": "node/6496367700",
      "nombre": "Santa María del Cedro",
      "tipo_localidad": "hamlet",
      "latitud": 13.4739932,
      "longitud": -85.585145,
      "departamento": "Jinotega (Departamento)"
    },
    {
      "osm_id": "node/6496367702",
      "nombre": "El Chilamate",
      "tipo_localidad": "hamlet",
      "latitud": 13.410695,
      "longitud": -85.6178625,
      "departamento": "Jinotega (Departamento)"
    },
    {
      "osm_id": "node/6496367703",
      "nombre": "Germán Pomares",
      "tipo_localidad": "hamlet",
      "latitud": 13.4039948,
      "longitud": -85.621682,
      "departamento": "Jinotega (Departamento)"
    },
    {
      "osm_id": "node/6496367704",
      "nombre": "San Benito",
      "tipo_localidad": "hamlet",
      "latitud": 13.4101106,
      "longitud": -85.5993875,
      "departamento": "Jinotega (Departamento)"
    },
    {
      "osm_id": "node/6496367705",
      "nombre": "El Galope",
      "tipo_localidad": "hamlet",
      "latitud": 13.4029094,
      "longitud": -85.5945595,
      "departamento": "Jinotega (Departamento)"
    },
    {
      "osm_id": "node/6496367706",
      "nombre": "Cefer",
      "tipo_localidad": "hamlet",
      "latitud": 13.3941791,
      "longitud": -85.6259038,
      "departamento": "Jinotega (Departamento)"
    },
    {
      "osm_id": "node/6496367707",
      "nombre": "Altamira",
      "tipo_localidad": "hamlet",
      "latitud": 13.3839767,
      "longitud": -85.6257161,
      "departamento": "Jinotega (Departamento)"
    },
    {
      "osm_id": "node/6496367708",
      "nombre": "Empalme Lana Arriba",
      "tipo_localidad": "hamlet",
      "latitud": 13.3609923,
      "longitud": -85.6339129,
      "departamento": "Jinotega (Departamento)"
    },
    {
      "osm_id": "node/6496367709",
      "nombre": "El Castillo de San Martín",
      "tipo_localidad": "hamlet",
      "latitud": 13.3267936,
      "longitud": -85.6347712,
      "departamento": "Jinotega (Departamento)"
    },
    {
      "osm_id": "node/6496367711",
      "nombre": "Villa Nueva Urbana",
      "tipo_localidad": "neighbourhood",
      "latitud": 13.3573858,
      "longitud": -85.6649728,
      "departamento": "Jinotega (Departamento)"
    },
    {
      "osm_id": "node/6496367712",
      "nombre": "La Chiripa",
      "tipo_localidad": "hamlet",
      "latitud": 13.3519629,
      "longitud": -85.6748165,
      "departamento": "Jinotega (Departamento)"
    },
    {
      "osm_id": "node/6496367713",
      "nombre": "Barrio Santiago Morán",
      "tipo_localidad": "neighbourhood",
      "latitud": 13.3591969,
      "longitud": -85.6699618,
      "departamento": "Jinotega (Departamento)"
    },
    {
      "osm_id": "node/6496367714",
      "nombre": "Barrio Octavio Rizo",
      "tipo_localidad": "neighbourhood",
      "latitud": 13.3671944,
      "longitud": -85.6722759,
      "departamento": "Jinotega (Departamento)"
    },
    {
      "osm_id": "node/6496367715",
      "nombre": "Reparto 20 de Enero",
      "tipo_localidad": "neighbourhood",
      "latitud": 13.3701401,
      "longitud": -85.6770429,
      "departamento": "Jinotega (Departamento)"
    },
    {
      "osm_id": "node/6496367717",
      "nombre": "Barrio Ernesto Gutiérrez",
      "tipo_localidad": "neighbourhood",
      "latitud": 13.3704976,
      "longitud": -85.6761025,
      "departamento": "Jinotega (Departamento)"
    },
    {
      "osm_id": "node/6496367718",
      "nombre": "Santa Ana",
      "tipo_localidad": "village",
      "latitud": 13.3701545,
      "longitud": -85.6652492,
      "departamento": "Jinotega (Departamento)"
    },
    {
      "osm_id": "node/6496388663",
      "nombre": "Las Cuatro Esquinas Nº 2",
      "tipo_localidad": "hamlet",
      "latitud": 13.4748566,
      "longitud": -85.7383795,
      "departamento": "Jinotega (Departamento)"
    },
    {
      "osm_id": "node/6496388664",
      "nombre": "Las Cuatro Esquinas",
      "tipo_localidad": "hamlet",
      "latitud": 13.4907801,
      "longitud": -85.7469037,
      "departamento": "Jinotega (Departamento)"
    },
    {
      "osm_id": "node/6496388665",
      "nombre": "Aguas Amarillas",
      "tipo_localidad": "hamlet",
      "latitud": 13.504645,
      "longitud": -85.7579597,
      "departamento": "Jinotega (Departamento)"
    },
    {
      "osm_id": "node/6496388666",
      "nombre": "La Marañosa",
      "tipo_localidad": "hamlet",
      "latitud": 13.5239542,
      "longitud": -85.7751124,
      "departamento": "Jinotega (Departamento)"
    },
    {
      "osm_id": "node/6496434490",
      "nombre": "Barrio Ebenezer",
      "tipo_localidad": "neighbourhood",
      "latitud": 13.604773,
      "longitud": -85.8191784,
      "departamento": "Jinotega (Departamento)"
    },
    {
      "osm_id": "node/6496434491",
      "nombre": "El Cacao",
      "tipo_localidad": "hamlet",
      "latitud": 13.6009564,
      "longitud": -85.8124407,
      "departamento": "Jinotega (Departamento)"
    },
    {
      "osm_id": "node/6496434492",
      "nombre": "Pata Blanca",
      "tipo_localidad": "hamlet",
      "latitud": 13.5891152,
      "longitud": -85.8258035,
      "departamento": "Jinotega (Departamento)"
    },
    {
      "osm_id": "node/6496434493",
      "nombre": "Boca de Corozal",
      "tipo_localidad": "hamlet",
      "latitud": 13.5717771,
      "longitud": -85.8190068,
      "departamento": "Jinotega (Departamento)"
    },
    {
      "osm_id": "node/6496434502",
      "nombre": "Santa Rosa La Marañosa",
      "tipo_localidad": "village",
      "latitud": 13.5172806,
      "longitud": -85.8061697,
      "departamento": "Jinotega (Departamento)"
    },
    {
      "osm_id": "node/6496434508",
      "nombre": "Zompoperita",
      "tipo_localidad": "hamlet",
      "latitud": 13.482113,
      "longitud": -85.8545406,
      "departamento": "Jinotega (Departamento)"
    },
    {
      "osm_id": "node/6496434509",
      "nombre": "Sompopera",
      "tipo_localidad": "hamlet",
      "latitud": 13.4493168,
      "longitud": -85.8848944,
      "departamento": "Jinotega (Departamento)"
    },
    {
      "osm_id": "node/6496434511",
      "nombre": "El Chile",
      "tipo_localidad": "hamlet",
      "latitud": 13.4081696,
      "longitud": -85.8944967,
      "departamento": "Jinotega (Departamento)"
    },
    {
      "osm_id": "node/6496442830",
      "nombre": "Santa María",
      "tipo_localidad": "hamlet",
      "latitud": 13.1797257,
      "longitud": -85.9599406,
      "departamento": "Jinotega (Departamento)"
    },
    {
      "osm_id": "node/6496446381",
      "nombre": "Cuatro Esquinas",
      "tipo_localidad": "hamlet",
      "latitud": 13.1846589,
      "longitud": -86.0971704,
      "departamento": "Jinotega (Departamento)"
    },
    {
      "osm_id": "node/6575793385",
      "nombre": "La Constancia",
      "tipo_localidad": "hamlet",
      "latitud": 13.4747106,
      "longitud": -86.0282858,
      "departamento": "Jinotega (Departamento)"
    },
    {
      "osm_id": "node/6598349686",
      "nombre": "Valle Los Robles",
      "tipo_localidad": "village",
      "latitud": 13.1715523,
      "longitud": -85.9519078,
      "departamento": "Jinotega (Departamento)"
    },
    {
      "osm_id": "node/6644842368",
      "nombre": "Colonia Pedro Estrada",
      "tipo_localidad": "neighbourhood",
      "latitud": 13.0940804,
      "longitud": -85.9992085,
      "departamento": "Jinotega (Departamento)"
    },
    {
      "osm_id": "node/6682514445",
      "nombre": "El Limito",
      "tipo_localidad": "hamlet",
      "latitud": 13.0610877,
      "longitud": -85.9814897,
      "departamento": "Jinotega (Departamento)"
    },
    {
      "osm_id": "node/6724901365",
      "nombre": "Las Pilas",
      "tipo_localidad": "hamlet",
      "latitud": 13.1559922,
      "longitud": -86.1742581,
      "departamento": "Jinotega (Departamento)"
    },
    {
      "osm_id": "node/6726794168",
      "nombre": "María Auxiliadora",
      "tipo_localidad": "hamlet",
      "latitud": 13.2180886,
      "longitud": -85.908121,
      "departamento": "Jinotega (Departamento)"
    },
    {
      "osm_id": "node/6726823718",
      "nombre": "Valle Datanlí",
      "tipo_localidad": "village",
      "latitud": 13.1364957,
      "longitud": -85.9305661,
      "departamento": "Jinotega (Departamento)"
    },
    {
      "osm_id": "node/6726838147",
      "nombre": "Miralagos",
      "tipo_localidad": "hamlet",
      "latitud": 13.1536494,
      "longitud": -85.9556171,
      "departamento": "Jinotega (Departamento)"
    },
    {
      "osm_id": "node/6726848309",
      "nombre": "Mancotal",
      "tipo_localidad": "village",
      "latitud": 13.2532879,
      "longitud": -85.9085489,
      "departamento": "Jinotega (Departamento)"
    },
    {
      "osm_id": "node/6919123819",
      "nombre": "Chagüite Grande",
      "tipo_localidad": "hamlet",
      "latitud": 13.1574411,
      "longitud": -86.0366671,
      "departamento": "Jinotega (Departamento)"
    },
    {
      "osm_id": "node/6919123821",
      "nombre": "La Concepción",
      "tipo_localidad": "hamlet",
      "latitud": 13.183777,
      "longitud": -86.0154991,
      "departamento": "Jinotega (Departamento)"
    },
    {
      "osm_id": "node/7080414193",
      "nombre": "La Vuelta del Roble",
      "tipo_localidad": "hamlet",
      "latitud": 13.1964933,
      "longitud": -86.1282761,
      "departamento": "Jinotega (Departamento)"
    },
    {
      "osm_id": "node/7115124974",
      "nombre": "Los Encuentros",
      "tipo_localidad": "hamlet",
      "latitud": 13.094034,
      "longitud": -86.0787464,
      "departamento": "Jinotega (Departamento)"
    },
    {
      "osm_id": "node/7115127159",
      "nombre": "Santa Ana",
      "tipo_localidad": "hamlet",
      "latitud": 13.0716014,
      "longitud": -86.0648289,
      "departamento": "Jinotega (Departamento)"
    },
    {
      "osm_id": "node/7237192449",
      "nombre": "Barrio Ciudadela",
      "tipo_localidad": "neighbourhood",
      "latitud": 13.6094863,
      "longitud": -85.8204445,
      "departamento": "Jinotega (Departamento)"
    },
    {
      "osm_id": "node/7237192450",
      "nombre": "Barrio Bello Horizonte",
      "tipo_localidad": "neighbourhood",
      "latitud": 13.606942,
      "longitud": -85.8206698,
      "departamento": "Jinotega (Departamento)"
    },
    {
      "osm_id": "node/7237192451",
      "nombre": "Barrio Canadá",
      "tipo_localidad": "neighbourhood",
      "latitud": 13.6078388,
      "longitud": -85.8183952,
      "departamento": "Jinotega (Departamento)"
    },
    {
      "osm_id": "node/7237192452",
      "nombre": "Barrio Concepción Dávila",
      "tipo_localidad": "neighbourhood",
      "latitud": 13.6123748,
      "longitud": -85.8158525,
      "departamento": "Jinotega (Departamento)"
    },
    {
      "osm_id": "node/7237192453",
      "nombre": "Barrio El Progreso",
      "tipo_localidad": "neighbourhood",
      "latitud": 13.6138242,
      "longitud": -85.8184811,
      "departamento": "Jinotega (Departamento)"
    },
    {
      "osm_id": "node/7237192454",
      "nombre": "Barrio Los Ángeles",
      "tipo_localidad": "neighbourhood",
      "latitud": 13.617286,
      "longitud": -85.8186742,
      "departamento": "Jinotega (Departamento)"
    },
    {
      "osm_id": "node/7237192458",
      "nombre": "Sector Nº 2",
      "tipo_localidad": "neighbourhood",
      "latitud": 13.6208417,
      "longitud": -85.817655,
      "departamento": "Jinotega (Departamento)"
    },
    {
      "osm_id": "node/7237192459",
      "nombre": "Sector Nº 3",
      "tipo_localidad": "neighbourhood",
      "latitud": 13.6223328,
      "longitud": -85.819436,
      "departamento": "Jinotega (Departamento)"
    },
    {
      "osm_id": "node/7237192460",
      "nombre": "Barrio Nueva Jerusalén",
      "tipo_localidad": "neighbourhood",
      "latitud": 13.6107272,
      "longitud": -85.8180412,
      "departamento": "Jinotega (Departamento)"
    },
    {
      "osm_id": "node/7237196604",
      "nombre": "Barrio Luis Octavio Payán",
      "tipo_localidad": "neighbourhood",
      "latitud": 13.1953822,
      "longitud": -86.168305,
      "departamento": "Jinotega (Departamento)"
    },
    {
      "osm_id": "node/7237196605",
      "nombre": "Barrio La Resistencia",
      "tipo_localidad": "neighbourhood",
      "latitud": 13.1943273,
      "longitud": -86.1658696,
      "departamento": "Jinotega (Departamento)"
    },
    {
      "osm_id": "node/7237196606",
      "nombre": "Barrio Germán Pomares",
      "tipo_localidad": "neighbourhood",
      "latitud": 13.1950376,
      "longitud": -86.1633269,
      "departamento": "Jinotega (Departamento)"
    },
    {
      "osm_id": "node/7237230471",
      "nombre": "Reparto Linda Vista",
      "tipo_localidad": "neighbourhood",
      "latitud": 13.3738224,
      "longitud": -85.6800663,
      "departamento": "Jinotega (Departamento)"
    },
    {
      "osm_id": "node/7237230472",
      "nombre": "Sector C",
      "tipo_localidad": "neighbourhood",
      "latitud": 13.5455249,
      "longitud": -85.5370156,
      "departamento": "Jinotega (Departamento)"
    },
    {
      "osm_id": "node/7237230473",
      "nombre": "Sector B",
      "tipo_localidad": "neighbourhood",
      "latitud": 13.5438351,
      "longitud": -85.5404488,
      "departamento": "Jinotega (Departamento)"
    },
    {
      "osm_id": "node/7237230474",
      "nombre": "Sector A",
      "tipo_localidad": "neighbourhood",
      "latitud": 13.5408937,
      "longitud": -85.5411999,
      "departamento": "Jinotega (Departamento)"
    },
    {
      "osm_id": "node/7237239924",
      "nombre": "San Marcos",
      "tipo_localidad": "village",
      "latitud": 13.1349862,
      "longitud": -86.0976671,
      "departamento": "Jinotega (Departamento)"
    },
    {
      "osm_id": "node/7964713262",
      "nombre": "Barrio La Juana",
      "tipo_localidad": "neighbourhood",
      "latitud": 13.3456293,
      "longitud": -85.9489606,
      "departamento": "Jinotega (Departamento)"
    },
    {
      "osm_id": "node/7964713263",
      "nombre": "Barrio Nuevo Amanecer",
      "tipo_localidad": "neighbourhood",
      "latitud": 13.3500528,
      "longitud": -85.9453638,
      "departamento": "Jinotega (Departamento)"
    },
    {
      "osm_id": "node/7964713264",
      "nombre": "Barrio La Unión",
      "tipo_localidad": "neighbourhood",
      "latitud": 13.3499745,
      "longitud": -85.9428452,
      "departamento": "Jinotega (Departamento)"
    },
    {
      "osm_id": "node/7964713265",
      "nombre": "Barrio 18 de Octubre",
      "tipo_localidad": "neighbourhood",
      "latitud": 13.3479976,
      "longitud": -85.943851,
      "departamento": "Jinotega (Departamento)"
    },
    {
      "osm_id": "node/7964713266",
      "nombre": "Barrio Linda Vista",
      "tipo_localidad": "neighbourhood",
      "latitud": 13.3470059,
      "longitud": -85.9421746,
      "departamento": "Jinotega (Departamento)"
    },
    {
      "osm_id": "node/8191518300",
      "nombre": "Los Calpules",
      "tipo_localidad": "hamlet",
      "latitud": 13.0468773,
      "longitud": -86.090306,
      "departamento": "Jinotega (Departamento)"
    },
    {
      "osm_id": "node/8191560042",
      "nombre": "Santa Teresita",
      "tipo_localidad": "hamlet",
      "latitud": 13.0550385,
      "longitud": -86.0708293,
      "departamento": "Jinotega (Departamento)"
    },
    {
      "osm_id": "node/8191560612",
      "nombre": "Alemania",
      "tipo_localidad": "hamlet",
      "latitud": 13.1099948,
      "longitud": -85.9854167,
      "departamento": "Jinotega (Departamento)"
    },
    {
      "osm_id": "node/8191587074",
      "nombre": "Los Andes",
      "tipo_localidad": "hamlet",
      "latitud": 13.3458084,
      "longitud": -85.7687588,
      "departamento": "Jinotega (Departamento)"
    },
    {
      "osm_id": "node/8191587772",
      "nombre": "La Pavona Abajo",
      "tipo_localidad": "village",
      "latitud": 13.3311565,
      "longitud": -85.8072545,
      "departamento": "Jinotega (Departamento)"
    },
    {
      "osm_id": "node/8191599505",
      "nombre": "La Esperanza",
      "tipo_localidad": "hamlet",
      "latitud": 13.3566137,
      "longitud": -85.7907178,
      "departamento": "Jinotega (Departamento)"
    },
    {
      "osm_id": "node/8191604684",
      "nombre": "Santa Ana",
      "tipo_localidad": "hamlet",
      "latitud": 13.1507097,
      "longitud": -85.9575288,
      "departamento": "Jinotega (Departamento)"
    },
    {
      "osm_id": "node/8191605432",
      "nombre": "Las Cruces",
      "tipo_localidad": "village",
      "latitud": 13.2905318,
      "longitud": -85.9336002,
      "departamento": "Jinotega (Departamento)"
    },
    {
      "osm_id": "node/8191613149",
      "nombre": "Peñas Blancas",
      "tipo_localidad": "hamlet",
      "latitud": 13.2790056,
      "longitud": -85.7279892,
      "departamento": "Jinotega (Departamento)"
    },
    {
      "osm_id": "node/8191619067",
      "nombre": "Pueblo Nuevo (La Pavona Arriba)",
      "tipo_localidad": "hamlet",
      "latitud": 13.2895145,
      "longitud": -85.7530816,
      "departamento": "Jinotega (Departamento)"
    },
    {
      "osm_id": "node/8191623584",
      "nombre": "El Castillo Sur",
      "tipo_localidad": "hamlet",
      "latitud": 13.3214985,
      "longitud": -85.7606313,
      "departamento": "Jinotega (Departamento)"
    },
    {
      "osm_id": "node/8191628404",
      "nombre": "Las Pesas",
      "tipo_localidad": "hamlet",
      "latitud": 13.3411547,
      "longitud": -85.7552373,
      "departamento": "Jinotega (Departamento)"
    },
    {
      "osm_id": "node/8191637455",
      "nombre": "La Vigiita",
      "tipo_localidad": "hamlet",
      "latitud": 13.4779658,
      "longitud": -85.9039983,
      "departamento": "Jinotega (Departamento)"
    },
    {
      "osm_id": "node/8191638825",
      "nombre": "Casa Boleada",
      "tipo_localidad": "hamlet",
      "latitud": 13.4904631,
      "longitud": -85.8333963,
      "departamento": "Jinotega (Departamento)"
    },
    {
      "osm_id": "node/8191652831",
      "nombre": "San Vicente",
      "tipo_localidad": "hamlet",
      "latitud": 13.4526638,
      "longitud": -85.8106628,
      "departamento": "Jinotega (Departamento)"
    },
    {
      "osm_id": "node/8191657482",
      "nombre": "Pénjamo",
      "tipo_localidad": "hamlet",
      "latitud": 13.5104227,
      "longitud": -85.9914811,
      "departamento": "Jinotega (Departamento)"
    },
    {
      "osm_id": "node/8191666916",
      "nombre": "La Palmera",
      "tipo_localidad": "hamlet",
      "latitud": 13.5104676,
      "longitud": -86.0192335,
      "departamento": "Jinotega (Departamento)"
    },
    {
      "osm_id": "node/8191671288",
      "nombre": "Las Parcelas",
      "tipo_localidad": "hamlet",
      "latitud": 13.4999613,
      "longitud": -85.9834503,
      "departamento": "Jinotega (Departamento)"
    },
    {
      "osm_id": "node/8191686573",
      "nombre": "El Ojochal",
      "tipo_localidad": "hamlet",
      "latitud": 13.8809664,
      "longitud": -85.4099088,
      "departamento": "Jinotega (Departamento)"
    },
    {
      "osm_id": "node/8191697884",
      "nombre": "Kantayawás No 2",
      "tipo_localidad": "hamlet",
      "latitud": 13.8664327,
      "longitud": -85.4188376,
      "departamento": "Jinotega (Departamento)"
    },
    {
      "osm_id": "node/8191707976",
      "nombre": "San Juan de Awaswas",
      "tipo_localidad": "hamlet",
      "latitud": 13.6329768,
      "longitud": -85.5994219,
      "departamento": "Jinotega (Departamento)"
    },
    {
      "osm_id": "node/8191708019",
      "nombre": "Valle Los Blandones",
      "tipo_localidad": "hamlet",
      "latitud": 13.7620536,
      "longitud": -85.4322838,
      "departamento": "Jinotega (Departamento)"
    },
    {
      "osm_id": "node/8191708376",
      "nombre": "Valle Los Condega",
      "tipo_localidad": "hamlet",
      "latitud": 13.5554496,
      "longitud": -85.6692544,
      "departamento": "Jinotega (Departamento)"
    },
    {
      "osm_id": "node/8191711343",
      "nombre": "Valle El Cedro",
      "tipo_localidad": "hamlet",
      "latitud": 13.5210973,
      "longitud": -85.6234305,
      "departamento": "Jinotega (Departamento)"
    },
    {
      "osm_id": "node/8191717945",
      "nombre": "Colina Hollada",
      "tipo_localidad": "hamlet",
      "latitud": 13.5395405,
      "longitud": -85.6462383,
      "departamento": "Jinotega (Departamento)"
    },
    {
      "osm_id": "node/8191720279",
      "nombre": "La Florida",
      "tipo_localidad": "hamlet",
      "latitud": 13.4993472,
      "longitud": -85.6006385,
      "departamento": "Jinotega (Departamento)"
    },
    {
      "osm_id": "node/8191727156",
      "nombre": "Benjamín Linder",
      "tipo_localidad": "village",
      "latitud": 13.5731814,
      "longitud": -85.5200498,
      "departamento": "Jinotega (Departamento)"
    },
    {
      "osm_id": "node/8191727157",
      "nombre": "Piedra Colorada",
      "tipo_localidad": "hamlet",
      "latitud": 13.6200394,
      "longitud": -85.4676677,
      "departamento": "Jinotega (Departamento)"
    },
    {
      "osm_id": "node/8191738173",
      "nombre": "Montes de Oro",
      "tipo_localidad": "hamlet",
      "latitud": 13.5590406,
      "longitud": -85.5430937,
      "departamento": "Jinotega (Departamento)"
    },
    {
      "osm_id": "node/8191738632",
      "nombre": "La Esperanza",
      "tipo_localidad": "hamlet",
      "latitud": 13.5086568,
      "longitud": -85.5565081,
      "departamento": "Jinotega (Departamento)"
    },
    {
      "osm_id": "node/8191742199",
      "nombre": "Golondrinas",
      "tipo_localidad": "hamlet",
      "latitud": 13.6251402,
      "longitud": -85.4409362,
      "departamento": "Jinotega (Departamento)"
    },
    {
      "osm_id": "node/8191750006",
      "nombre": "Golondrina",
      "tipo_localidad": "hamlet",
      "latitud": 13.5428711,
      "longitud": -85.4585859,
      "departamento": "Jinotega (Departamento)"
    },
    {
      "osm_id": "node/8191751602",
      "nombre": "Turuwás Abajo",
      "tipo_localidad": "village",
      "latitud": 13.7557203,
      "longitud": -85.3778363,
      "departamento": "Jinotega (Departamento)"
    },
    {
      "osm_id": "node/8191757039",
      "nombre": "San Francisco de Ostiwás",
      "tipo_localidad": "hamlet",
      "latitud": 13.4730205,
      "longitud": -85.5172764,
      "departamento": "Jinotega (Departamento)"
    },
    {
      "osm_id": "node/8191775810",
      "nombre": "Kiwayan",
      "tipo_localidad": "hamlet",
      "latitud": 14.4214804,
      "longitud": -85.1868244,
      "departamento": "Jinotega (Departamento)"
    },
    {
      "osm_id": "node/8191776643",
      "nombre": "Hormiguero",
      "tipo_localidad": "village",
      "latitud": 13.6163347,
      "longitud": -85.4256556,
      "departamento": "Jinotega (Departamento)"
    },
    {
      "osm_id": "node/8191788562",
      "nombre": "Maldonado",
      "tipo_localidad": "hamlet",
      "latitud": 13.5895351,
      "longitud": -85.5520477,
      "departamento": "Jinotega (Departamento)"
    },
    {
      "osm_id": "node/8191799840",
      "nombre": "Wiso",
      "tipo_localidad": "hamlet",
      "latitud": 14.002021,
      "longitud": -85.3298831,
      "departamento": "Jinotega (Departamento)"
    },
    {
      "osm_id": "node/8191802208",
      "nombre": "San Juan de Awaswas",
      "tipo_localidad": "village",
      "latitud": 13.6292595,
      "longitud": -85.5889438,
      "departamento": "Jinotega (Departamento)"
    },
    {
      "osm_id": "node/8191804410",
      "nombre": "Aguas Zarcas Abajo",
      "tipo_localidad": "neighbourhood",
      "latitud": 13.5768389,
      "longitud": -85.5217474,
      "departamento": "Jinotega (Departamento)"
    },
    {
      "osm_id": "node/8191811673",
      "nombre": "La Joba",
      "tipo_localidad": "village",
      "latitud": 13.6250592,
      "longitud": -85.8050107,
      "departamento": "Jinotega (Departamento)"
    },
    {
      "osm_id": "node/8191815851",
      "nombre": "Silam Planta",
      "tipo_localidad": "hamlet",
      "latitud": 13.9610898,
      "longitud": -85.3542477,
      "departamento": "Jinotega (Departamento)"
    },
    {
      "osm_id": "node/8191824314",
      "nombre": "El Barro",
      "tipo_localidad": "hamlet",
      "latitud": 13.7328934,
      "longitud": -85.7408676,
      "departamento": "Jinotega (Departamento)"
    },
    {
      "osm_id": "node/8191824673",
      "nombre": "Yakal Panani",
      "tipo_localidad": "village",
      "latitud": 14.0722763,
      "longitud": -85.5060319,
      "departamento": "Jinotega (Departamento)"
    },
    {
      "osm_id": "node/8191826063",
      "nombre": "Maquengales",
      "tipo_localidad": "hamlet",
      "latitud": 13.958461,
      "longitud": -85.737537,
      "departamento": "Jinotega (Departamento)"
    },
    {
      "osm_id": "node/8191836224",
      "nombre": "La Central",
      "tipo_localidad": "hamlet",
      "latitud": 13.6565353,
      "longitud": -85.6825218,
      "departamento": "Jinotega (Departamento)"
    },
    {
      "osm_id": "node/8191841052",
      "nombre": "El Aguacate",
      "tipo_localidad": "hamlet",
      "latitud": 13.7930964,
      "longitud": -85.7337599,
      "departamento": "Jinotega (Departamento)"
    },
    {
      "osm_id": "node/8191843934",
      "nombre": "Las Vueltas",
      "tipo_localidad": "hamlet",
      "latitud": 13.6580329,
      "longitud": -85.8091799,
      "departamento": "Jinotega (Departamento)"
    },
    {
      "osm_id": "node/8191895916",
      "nombre": "El Amparo",
      "tipo_localidad": "hamlet",
      "latitud": 13.3788385,
      "longitud": -86.0891042,
      "departamento": "Jinotega (Departamento)"
    },
    {
      "osm_id": "node/8191920814",
      "nombre": "El Coyol",
      "tipo_localidad": "hamlet",
      "latitud": 13.3599592,
      "longitud": -86.0825947,
      "departamento": "Jinotega (Departamento)"
    },
    {
      "osm_id": "node/8191937533",
      "nombre": "Las Calabazas",
      "tipo_localidad": "hamlet",
      "latitud": 13.2923729,
      "longitud": -86.2215896,
      "departamento": "Jinotega (Departamento)"
    },
    {
      "osm_id": "node/8191971172",
      "nombre": "Las Lagunetas",
      "tipo_localidad": "hamlet",
      "latitud": 13.2957706,
      "longitud": -86.2329183,
      "departamento": "Jinotega (Departamento)"
    },
    {
      "osm_id": "node/8199637736",
      "nombre": "Diriangén",
      "tipo_localidad": "neighbourhood",
      "latitud": 13.134657,
      "longitud": -86.0046054,
      "departamento": "Jinotega (Departamento)"
    },
    {
      "osm_id": "node/8202177381",
      "nombre": "Boniche",
      "tipo_localidad": "village",
      "latitud": 13.2605277,
      "longitud": -86.163904,
      "departamento": "Jinotega (Departamento)"
    },
    {
      "osm_id": "node/8223542284",
      "nombre": "Empalme a San Antonio",
      "tipo_localidad": "hamlet",
      "latitud": 13.1950096,
      "longitud": -86.0172229,
      "departamento": "Jinotega (Departamento)"
    },
    {
      "osm_id": "node/8225154978",
      "nombre": "San Esteban #2",
      "tipo_localidad": "hamlet",
      "latitud": 13.197642,
      "longitud": -85.9435567,
      "departamento": "Jinotega (Departamento)"
    },
    {
      "osm_id": "node/8231562584",
      "nombre": "Volcán Grande",
      "tipo_localidad": "hamlet",
      "latitud": 13.1346789,
      "longitud": -85.8440304,
      "departamento": "Jinotega (Departamento)"
    },
    {
      "osm_id": "node/8238154390",
      "nombre": "Anexo 20 de Mayo",
      "tipo_localidad": "neighbourhood",
      "latitud": 13.0885231,
      "longitud": -86.0034145,
      "departamento": "Jinotega (Departamento)"
    },
    {
      "osm_id": "node/8280051825",
      "nombre": "El Zapote",
      "tipo_localidad": "village",
      "latitud": 13.1220221,
      "longitud": -86.0902946,
      "departamento": "Jinotega (Departamento)"
    },
    {
      "osm_id": "node/8334282394",
      "nombre": "El Achiote",
      "tipo_localidad": "hamlet",
      "latitud": 13.1880587,
      "longitud": -86.1022262,
      "departamento": "Jinotega (Departamento)"
    },
    {
      "osm_id": "node/8334292083",
      "nombre": "San Antonio",
      "tipo_localidad": "hamlet",
      "latitud": 13.177725,
      "longitud": -86.0838515,
      "departamento": "Jinotega (Departamento)"
    },
    {
      "osm_id": "node/8362862845",
      "nombre": "Barrio Juan Ramón Corea",
      "tipo_localidad": "neighbourhood",
      "latitud": 13.085658,
      "longitud": -86.0005475,
      "departamento": "Jinotega (Departamento)"
    },
    {
      "osm_id": "node/8433286535",
      "nombre": "Sector Nº 1",
      "tipo_localidad": "neighbourhood",
      "latitud": 13.6169123,
      "longitud": -85.8171073,
      "departamento": "Jinotega (Departamento)"
    },
    {
      "osm_id": "node/8433288887",
      "nombre": "Barrio Buena Vista",
      "tipo_localidad": "neighbourhood",
      "latitud": 13.6173958,
      "longitud": -85.8201214,
      "departamento": "Jinotega (Departamento)"
    },
    {
      "osm_id": "node/8433335541",
      "nombre": "Barrio Laberinto de Pasiones",
      "tipo_localidad": "neighbourhood",
      "latitud": 13.6193005,
      "longitud": -85.8200347,
      "departamento": "Jinotega (Departamento)"
    },
    {
      "osm_id": "node/8450682894",
      "nombre": "El Prisionero",
      "tipo_localidad": "hamlet",
      "latitud": 13.4367788,
      "longitud": -85.9812663,
      "departamento": "Jinotega (Departamento)"
    },
    {
      "osm_id": "node/8450699917",
      "nombre": "Los Talnetes",
      "tipo_localidad": "hamlet",
      "latitud": 13.2029818,
      "longitud": -86.2049686,
      "departamento": "Jinotega (Departamento)"
    },
    {
      "osm_id": "node/8450705907",
      "nombre": "El Zacaton",
      "tipo_localidad": "hamlet",
      "latitud": 13.2327953,
      "longitud": -86.240526,
      "departamento": "Jinotega (Departamento)"
    },
    {
      "osm_id": "node/8450722371",
      "nombre": "Laguna Verde",
      "tipo_localidad": "hamlet",
      "latitud": 13.2787422,
      "longitud": -86.0902088,
      "departamento": "Jinotega (Departamento)"
    },
    {
      "osm_id": "node/8450736988",
      "nombre": "Potrerillos",
      "tipo_localidad": "hamlet",
      "latitud": 13.2055246,
      "longitud": -86.0822251,
      "departamento": "Jinotega (Departamento)"
    },
    {
      "osm_id": "node/8450746394",
      "nombre": "San Pedro",
      "tipo_localidad": "hamlet",
      "latitud": 13.3815952,
      "longitud": -86.1114047,
      "departamento": "Jinotega (Departamento)"
    },
    {
      "osm_id": "node/8450761992",
      "nombre": "Santa Cruz",
      "tipo_localidad": "hamlet",
      "latitud": 13.4438874,
      "longitud": -85.9040607,
      "departamento": "Jinotega (Departamento)"
    },
    {
      "osm_id": "node/8450778285",
      "nombre": "Las Minas",
      "tipo_localidad": "hamlet",
      "latitud": 13.4230514,
      "longitud": -86.0962663,
      "departamento": "Jinotega (Departamento)"
    },
    {
      "osm_id": "node/8450788496",
      "nombre": "El Robledalito",
      "tipo_localidad": "hamlet",
      "latitud": 13.3990766,
      "longitud": -86.2048621,
      "departamento": "Jinotega (Departamento)"
    },
    {
      "osm_id": "node/8450800919",
      "nombre": "Bijagual",
      "tipo_localidad": "hamlet",
      "latitud": 13.3620003,
      "longitud": -86.1902763,
      "departamento": "Jinotega (Departamento)"
    },
    {
      "osm_id": "node/8450821721",
      "nombre": "Valle Zenizabú",
      "tipo_localidad": "hamlet",
      "latitud": 13.3243472,
      "longitud": -85.9806679,
      "departamento": "Jinotega (Departamento)"
    },
    {
      "osm_id": "node/8450826545",
      "nombre": "La Reina",
      "tipo_localidad": "village",
      "latitud": 13.3275059,
      "longitud": -85.8389137,
      "departamento": "Jinotega (Departamento)"
    },
    {
      "osm_id": "node/8450828684",
      "nombre": "La Brellera #2",
      "tipo_localidad": "hamlet",
      "latitud": 13.4047983,
      "longitud": -85.9490747,
      "departamento": "Jinotega (Departamento)"
    },